{
"Sheet1":[
 {
  "Date": "30-Aug-24",
  "Site Number": 600591,
  "Site Name": "PRESTIA",
  "Serial Number": "80000213079722262163",
  "Tracker IMEI": 0,
  "Geofence Distance": 103,
  "Tracker": "No",
  "Latitude": 5.4201267,
  "Longitude": -2.1351667
 },
 {
  "Date": "19-Apr-24",
  "Site Number": 600036,
  "Site Name": "POKUASI",
  "Serial Number": "80000213079722262629",
  "Tracker IMEI": 0,
  "Geofence Distance": 108,
  "Tracker": "No",
  "Latitude": 5.69216166666667,
  "Longitude": -0.266136666666667
 },
 {
  "Date": "10-Jun-24",
  "Site Number": 600072,
  "Site Name": "MCARTHY2",
  "Serial Number": "80000118139822253493",
  "Tracker IMEI": 0,
  "Tracker": "No",
  "Latitude": 5.5392617,
  "Longitude": -0.3072767
 },
 {
  "Date": "28-Aug-24",
  "Site Number": 601240,
  "Site Name": "TARKWA4",
  "Serial Number": "80000213079722263111",
  "Tracker IMEI": 0,
  "Geofence Distance": 100,
  "Tracker": "No",
  "Latitude": 5.3038014,
  "Longitude": -1.9939124
 },
 {
  "Date": "06-May-24",
  "Site Number": 600082,
  "Site Name": "ABLEKUMA",
  "Serial Number": "80000103039820140066",
  "Tracker IMEI": 0,
  "Tracker": "No",
  "Latitude": 5.6245033,
  "Longitude": -0.30273
 },
 {
  "Date": "22-Apr-24",
  "Site Number": 600088,
  "Site Name": "ASHONGMAN1",
  "Serial Number": "80000118099821411026",
  "Tracker IMEI": 0,
  "Geofence Distance": 105,
  "Tracker": "No",
  "Latitude": 5.70663833333333,
  "Longitude": -0.239438333333333
 },
 {
  "Date": "27-Aug-24",
  "Site Number": 601248,
  "Site Name": "DOMPIM",
  "Serial Number": "80000118109721493667",
  "Tracker IMEI": 0,
  "Geofence Distance": 104,
  "Tracker": "No",
  "Latitude": 5.1592282,
  "Longitude": -2.0746323
 },
 {
  "Date": "27-Aug-24",
  "Site Number": 601244,
  "Site Name": "WASSAAGONA",
  "Serial Number": "80000118069820470191",
  "Tracker IMEI": 0,
  "Geofence Distance": 104,
  "Tracker": "No",
  "Latitude": 5.2148598,
  "Longitude": -2.0248546
 },
 {
  "Date": "23-Apr-24",
  "Site Number": 600140,
  "Site Name": "DOME",
  "Serial Number": "80000118099821411233",
  "Tracker IMEI": 0,
  "Tracker": "No"
 },
 {
  "Date": "27-Mar-24",
  "Site Number": 600151,
  "Site Name": "ASYLUMDOWN",
  "Serial Number": "80000118079820480223",
  "Tracker IMEI": 0,
  "Geofence Distance": 100,
  "Tracker": "No",
  "Latitude": 5.5695408,
  "Longitude": -0.2036918
 },
 {
  "Date": "23-Aug-24",
  "Site Number": 600658,
  "Site Name": "APOLLO",
  "Serial Number": "80000103039820120077",
  "Tracker IMEI": 0,
  "Geofence Distance": 101,
  "Tracker": "No",
  "Latitude": 4.905165,
  "Longitude": -1.7961664
 },
 {
  "Date": "19-Apr-24",
  "Site Number": 600182,
  "Site Name": "POKUASI2",
  "Serial Number": "80000213079722262540",
  "Tracker IMEI": 0,
  "Geofence Distance": 110,
  "Tracker": "No",
  "Latitude": 5.69335483417508,
  "Longitude": -0.285071676243789
 },
 {
  "Date": "21-Aug-24",
  "Site Number": 601199,
  "Site Name": "DABOASE",
  "Serial Number": "80000118059820380059",
  "Tracker IMEI": 0,
  "Geofence Distance": 102,
  "Tracker": "No",
  "Latitude": 5.13830543,
  "Longitude": -1.66861335
 },
 {
  "Date": "20-Aug-24",
  "Site Number": 600655,
  "Site Name": "TAKORADI2",
  "Serial Number": "80000118099821411246",
  "Tracker IMEI": 0,
  "Geofence Distance": 105,
  "Tracker": "No",
  "Latitude": 4.89221156,
  "Longitude": -1.75597867
 },
 {
  "Date": "07-Aug-24",
  "Site Number": 601277,
  "Site Name": "ACHIASE2",
  "Serial Number": "80000035029819330249",
  "Tracker IMEI": 0,
  "Geofence Distance": 105,
  "Tracker": "No",
  "Latitude": 5.8262,
  "Longitude": -1.00029
 },
 {
  "Date": "07-Aug-24",
  "Site Number": 600542,
  "Site Name": "ACHIASE",
  "Serial Number": "80000269019819480114",
  "Tracker IMEI": 0,
  "Geofence Distance": 110,
  "Tracker": "No",
  "Latitude": 5.84322666666667,
  "Longitude": -0.996833333333333
 },
 {
  "Date": "06-Aug-24",
  "Site Number": 601311,
  "Site Name": "ATIANKAMA",
  "Serial Number": "80000103039820120117",
  "Tracker IMEI": 0,
  "Geofence Distance": 103,
  "Tracker": "No",
  "Latitude": 5.944625,
  "Longitude": -0.828033333333333
 },
 {
  "Date": "06-Aug-24",
  "Site Number": 601149,
  "Site Name": "ASAMANKESE2",
  "Serial Number": "80000035029819340146",
  "Tracker IMEI": 0,
  "Geofence Distance": 103,
  "Tracker": "No",
  "Latitude": 5.8582049,
  "Longitude": -0.6634516
 },
 {
  "Date": "01-Aug-24",
  "Site Number": 601282,
  "Site Name": "ASAMANKESE3",
  "Serial Number": "80000103039820130056",
  "Tracker IMEI": 0,
  "Geofence Distance": 100,
  "Tracker": "No",
  "Latitude": 5.86583,
  "Longitude": -0.6736333
 },
 {
  "Date": "31-Jul-24",
  "Site Number": 601171,
  "Site Name": "KWAMIKROM",
  "Serial Number": "80000103039820160045",
  "Tracker IMEI": 0,
  "Geofence Distance": 105,
  "Tracker": "No",
  "Latitude": 7.2908819,
  "Longitude": 0.3239122
 },
 {
  "Date": "30-Jul-24",
  "Site Number": 600563,
  "Site Name": "HOHOE",
  "Serial Number": "80000118099821411279",
  "Tracker IMEI": 0,
  "Geofence Distance": 100,
  "Tracker": "No",
  "Latitude": 7.14620880782604,
  "Longitude": 0.476699201390147
 },
 {
  "Date": "02-Jul-24",
  "Site Number": 600376,
  "Site Name": "ASHAIMAN1",
  "Serial Number": "80000118069820450101",
  "Tracker IMEI": 0,
  "Geofence Distance": 106,
  "Tracker": "No",
  "Latitude": 5.707755,
  "Longitude": -0.045935
 },
 {
  "Date": "30-Jul-24",
  "Site Number": 600678,
  "Site Name": "ANYINAM",
  "Serial Number": "80000103039820130047",
  "Tracker IMEI": 0,
  "Geofence Distance": 105,
  "Tracker": "No",
  "Latitude": 6.374135,
  "Longitude": -0.5464317
 },
 {
  "Date": "02-Jul-24",
  "Site Number": 600414,
  "Site Name": "ASHAIMAN3",
  "Serial Number": "80000213079722260221",
  "Tracker IMEI": 0,
  "Geofence Distance": 104,
  "Tracker": "No",
  "Latitude": 5.7008628,
  "Longitude": -0.0548493
 },
 {
  "Date": "04-Apr-24",
  "Site Number": 600425,
  "Site Name": "KAKASUNAKA2",
  "Serial Number": "80000035029819320166",
  "Tracker IMEI": 0,
  "Geofence Distance": 113,
  "Tracker": "No",
  "Latitude": 5.7376978,
  "Longitude": -0.0200821
 },
 {
  "Date": "04-Apr-24",
  "Site Number": 600454,
  "Site Name": "KPONJUNCTION",
  "Serial Number": "80000213079722262489",
  "Tracker IMEI": 0,
  "Geofence Distance": 110,
  "Tracker": "No",
  "Latitude": 5.71715321,
  "Longitude": 0.01493905
 },
 {
  "Date": "15-Apr-24",
  "Site Number": 600466,
  "Site Name": "MATAHEKOGA",
  "Serial Number": "80000271019818420161",
  "Tracker IMEI": 0,
  "Geofence Distance": 103,
  "Tracker": "No",
  "Latitude": 5.7657864,
  "Longitude": -0.0005799
 },
 {
  "Date": "25-Jul-24",
  "Site Number": 600648,
  "Site Name": "BOSO",
  "Serial Number": "80000118069820470200",
  "Tracker IMEI": 0,
  "Geofence Distance": 105,
  "Tracker": "No",
  "Latitude": 6.5471225,
  "Longitude": 0.1699842
 },
 {
  "Date": "19-Jul-24",
  "Site Number": 601296,
  "Site Name": "ADAWSO",
  "Serial Number": "80000035029819410400",
  "Tracker IMEI": 0,
  "Geofence Distance": 102,
  "Tracker": "No",
  "Latitude": 5.9462568,
  "Longitude": -0.2101484
 },
 {
  "Date": "19-Jul-24",
  "Site Number": 601281,
  "Site Name": "AKWADUMER",
  "Serial Number": "80000035019819250204",
  "Tracker IMEI": 0,
  "Geofence Distance": 106,
  "Tracker": "No",
  "Latitude": 6.11628,
  "Longitude": -0.3462933
 },
 {
  "Date": "17-Jul-24",
  "Site Number": 600742,
  "Site Name": "OYOKO",
  "Serial Number": "80000035029819350087",
  "Tracker IMEI": 0,
  "Geofence Distance": 105,
  "Tracker": "No",
  "Latitude": 6.1343016,
  "Longitude": -0.2885185
 },
 {
  "Date": "17-Jul-24",
  "Site Number": 601231,
  "Site Name": "JUMAPO",
  "Serial Number": "80000035019819250194",
  "Tracker IMEI": 0,
  "Geofence Distance": 106,
  "Tracker": "No",
  "Latitude": 6.1611767,
  "Longitude": -0.310175
 },
 {
  "Date": "16-Jul-24",
  "Site Number": 601180,
  "Site Name": "ABOR",
  "Serial Number": "80000103039820140148",
  "Tracker IMEI": 0,
  "Geofence Distance": 106,
  "Tracker": "No",
  "Latitude": 6.05797753333333,
  "Longitude": 0.864111066666667
 },
 {
  "Date": "15-Jul-24",
  "Site Number": 601166,
  "Site Name": "AKATSI2",
  "Serial Number": "80000269019819340223",
  "Tracker IMEI": 0,
  "Geofence Distance": 101,
  "Tracker": "No",
  "Latitude": 6.13034988333333,
  "Longitude": 0.7907384
 },
 {
  "Date": "10-Jul-24",
  "Site Number": 600690,
  "Site Name": "KROBOODUMSI",
  "Serial Number": "80000103039820140383",
  "Tracker IMEI": 0,
  "Geofence Distance": 104,
  "Tracker": "No",
  "Latitude": 6.139825,
  "Longitude": 0.0082133
 },
 {
  "Date": "11-Jul-24",
  "Site Number": 601229,
  "Site Name": "AWUKUGUA",
  "Serial Number": "80000103039820140371",
  "Tracker IMEI": 0,
  "Geofence Distance": 102,
  "Tracker": "No",
  "Latitude": 6.0034133,
  "Longitude": -0.07989
 },
 {
  "Date": "11-Jul-24",
  "Site Number": 601230,
  "Site Name": "APIRADE",
  "Serial Number": "80000103039820140238",
  "Tracker IMEI": 0,
  "Geofence Distance": 105,
  "Tracker": "No",
  "Latitude": 6.0390069,
  "Longitude": -0.0794084
 },
 {
  "Date": "10-Jul-24",
  "Site Number": 601220,
  "Site Name": "DABALA",
  "Serial Number": "80000103039820130177",
  "Tracker IMEI": 0,
  "Geofence Distance": 104,
  "Tracker": "No",
  "Latitude": 6.0176462,
  "Longitude": 0.66224854
 },
 {
  "Date": "09-May-24",
  "Site Number": 600832,
  "Site Name": "SOWUTUOM2",
  "Serial Number": "80000103039820160258",
  "Tracker IMEI": 0,
  "Tracker": "No"
 },
 {
  "Date": "17-Apr-24",
  "Site Number": 600892,
  "Site Name": "AMASAMAN2",
  "Serial Number": "80000035029819250572",
  "Tracker IMEI": 0,
  "Geofence Distance": 105,
  "Tracker": "No",
  "Latitude": 5.70219166666667,
  "Longitude": -0.309291666666667
 },
 {
  "Date": "23-Apr-24",
  "Site Number": 600931,
  "Site Name": "DOMEPILLA2",
  "Serial Number": "80000118099821421381",
  "Tracker IMEI": 0,
  "Tracker": "No",
  "Latitude": 5.6590254,
  "Longitude": -0.2182419
 },
 {
  "Date": "12-Apr-24",
  "Site Number": 601024,
  "Site Name": "ASHAINDUSTRY",
  "Serial Number": "80000118069820470149",
  "Tracker IMEI": 0,
  "Geofence Distance": 102,
  "Tracker": "No",
  "Latitude": 5.6889054,
  "Longitude": -0.0216612
 },
 {
  "Date": "10-Apr-24",
  "Site Number": 601032,
  "Site Name": "TEMACOMM25",
  "Serial Number": "80000118139722281950",
  "Tracker IMEI": 0,
  "Geofence Distance": 110,
  "Tracker": "No",
  "Latitude": 5.72215093,
  "Longitude": 0.03361458
 },
 {
  "Date": "01-Aug-24",
  "Site Number": 601317,
  "Site Name": "ASAFOER",
  "Serial Number": "80000103039820160104",
  "Tracker IMEI": 0,
  "Geofence Distance": 106,
  "Tracker": "No",
  "Latitude": 6.177885,
  "Longitude": -0.4732967
 },
 {
  "Date": "18-Jul-24",
  "Site Number": 601324,
  "Site Name": "HO3",
  "Serial Number": "80000118079820480278",
  "Tracker IMEI": 0,
  "Geofence Distance": 105,
  "Tracker": "No",
  "Latitude": 6.62715618371668,
  "Longitude": 0.474265515478571
 },
 {
  "Date": "01-Aug-24",
  "Site Number": 601516,
  "Site Name": "NKWANTAVR2",
  "Serial Number": "80000103029820080144",
  "Tracker IMEI": 0,
  "Geofence Distance": 103,
  "Tracker": "No",
  "Latitude": 8.2681792,
  "Longitude": 0.5181585
 },
 {
  "Date": "22-Aug-24",
  "Site Number": 601568,
  "Site Name": "APOWA2",
  "Serial Number": "80000118069820450019",
  "Tracker IMEI": 0,
  "Geofence Distance": 101,
  "Tracker": "No",
  "Latitude": 4.8922425,
  "Longitude": -1.8114986
 },
 {
  "Date": "07-Aug-24",
  "Site Number": 601591,
  "Site Name": "AKIMODA2",
  "Serial Number": "80000035029819330092",
  "Tracker IMEI": 0,
  "Geofence Distance": 103,
  "Tracker": "No",
  "Latitude": 5.92054833333333,
  "Longitude": -0.97791
 },
 {
  "Date": "25-Jul-24",
  "Site Number": 601599,
  "Site Name": "NSAWAM5",
  "Serial Number": "80000014019819310179",
  "Tracker IMEI": 0,
  "Geofence Distance": 104,
  "Tracker": "No",
  "Latitude": 5.77829,
  "Longitude": -0.335855
 },
 {
  "Date": "29-Aug-24",
  "Site Number": 601659,
  "Site Name": "OPONGVALEY",
  "Serial Number": "80000103039820120158",
  "Tracker IMEI": 0,
  "Geofence Distance": 106,
  "Tracker": "No",
  "Latitude": 5.6972036,
  "Longitude": -1.8441262
 },
 {
  "Date": "30-Aug-24",
  "Site Number": 601666,
  "Site Name": "BONDAYE",
  "Serial Number": "80000103039820170291",
  "Tracker IMEI": 0,
  "Geofence Distance": 102,
  "Tracker": "No",
  "Latitude": 5.3996213,
  "Longitude": -2.1696617
 },
 {
  "Date": "16-Jul-24",
  "Site Number": 601669,
  "Site Name": "OKORASE",
  "Serial Number": "80000014019819520006",
  "Tracker IMEI": 0,
  "Geofence Distance": 105,
  "Tracker": "No",
  "Latitude": 6.03265,
  "Longitude": -0.26186
 },
 {
  "Date": "29-Jul-24",
  "Site Number": 601670,
  "Site Name": "ASUBOI",
  "Serial Number": "80000035019819250084",
  "Tracker IMEI": 0,
  "Geofence Distance": 104,
  "Tracker": "No",
  "Latitude": 5.9485717,
  "Longitude": -0.4156033
 },
 {
  "Date": "15-Jul-24",
  "Site Number": 601864,
  "Site Name": "ASOKORE2",
  "Serial Number": "80000035019819250192",
  "Tracker IMEI": 0,
  "Geofence Distance": 100,
  "Tracker": "No",
  "Latitude": 6.115625,
  "Longitude": -0.2814683
 },
 {
  "Date": "06-Aug-24",
  "Site Number": 601883,
  "Site Name": "APROKUMASI",
  "Serial Number": "80000035029819370005",
  "Tracker IMEI": 0,
  "Geofence Distance": 100,
  "Tracker": "No",
  "Latitude": 5.820655,
  "Longitude": -0.8149383
 },
 {
  "Date": "19-Jul-24",
  "Site Number": 601889,
  "Site Name": "SOKODE",
  "Serial Number": "80000269019819510301",
  "Tracker IMEI": 0,
  "Geofence Distance": 105,
  "Tracker": "No",
  "Latitude": 6.56729299513212,
  "Longitude": 0.405617918177376
 },
 {
  "Date": "31-Jul-24",
  "Site Number": 601907,
  "Site Name": "NEWAYOMA",
  "Serial Number": "80000213079722262966",
  "Tracker IMEI": 0,
  "Geofence Distance": 102,
  "Tracker": "No",
  "Latitude": 7.288597,
  "Longitude": 0.5866847
 },
 {
  "Date": "24-Jul-24",
  "Site Number": 601928,
  "Site Name": "TSATE",
  "Serial Number": "80000269019819340089",
  "Tracker IMEI": 0,
  "Geofence Distance": 100,
  "Tracker": "No",
  "Latitude": 6.603795,
  "Longitude": 0.2446862
 },
 {
  "Date": "15-Jul-24",
  "Site Number": 601962,
  "Site Name": "OLDTAFOER",
  "Serial Number": "80000269019819420230",
  "Tracker IMEI": 0,
  "Geofence Distance": 106,
  "Tracker": "No",
  "Latitude": 6.2344009,
  "Longitude": -0.3979901
 },
 {
  "Date": "18-Jul-24",
  "Site Number": 601963,
  "Site Name": "BEGORO4",
  "Serial Number": "80000035019819250115",
  "Tracker IMEI": 0,
  "Geofence Distance": 103,
  "Tracker": "No"
 },
 {
  "Date": "30-Jul-24",
  "Site Number": 601964,
  "Site Name": "ANYINAM2",
  "Serial Number": "80000118069820440060",
  "Tracker IMEI": 0,
  "Geofence Distance": 106,
  "Tracker": "No",
  "Latitude": 6.382345,
  "Longitude": -0.5460633
 },
 {
  "Date": "21-Aug-24",
  "Site Number": 601975,
  "Site Name": "ASSAKAE",
  "Serial Number": "80000118079821150160",
  "Tracker IMEI": 0,
  "Geofence Distance": 103,
  "Tracker": "No",
  "Latitude": 4.93349816,
  "Longitude": -1.8004104
 },
 {
  "Date": "18-Jul-24",
  "Site Number": 601982,
  "Site Name": "HOCKROAD",
  "Serial Number": "80000269019819260126",
  "Tracker IMEI": 0,
  "Geofence Distance": 105,
  "Tracker": "No",
  "Latitude": 6.6194807,
  "Longitude": 0.474355
 },
 {
  "Date": "19-Jul-24",
  "Site Number": 601986,
  "Site Name": "HOKABAKABA",
  "Serial Number": "80000269019819320112",
  "Tracker IMEI": 0,
  "Geofence Distance": 100,
  "Tracker": "No",
  "Latitude": 6.6117383,
  "Longitude": 0.4569881
 },
 {
  "Date": "26-Jul-24",
  "Site Number": 602041,
  "Site Name": "NSAGYAKROM",
  "Serial Number": "80000103039820160582",
  "Tracker IMEI": 0,
  "Geofence Distance": 102,
  "Tracker": "No",
  "Latitude": 5.8144817,
  "Longitude": -0.3439483
 },
 {
  "Date": "18-Jul-24",
  "Site Number": 602046,
  "Site Name": "HOFOREST2",
  "Serial Number": "80000118079820480178",
  "Tracker IMEI": 0,
  "Geofence Distance": 104,
  "Tracker": "No",
  "Latitude": 6.6245833,
  "Longitude": 0.4678739
 },
 {
  "Date": "24-Jul-24",
  "Site Number": 602050,
  "Site Name": "PEKIAWUDOME",
  "Serial Number": "80000103039820170342",
  "Tracker IMEI": 0,
  "Geofence Distance": 100,
  "Tracker": "No",
  "Latitude": 6.537596,
  "Longitude": 0.2480547
 },
 {
  "Date": "15-Jul-24",
  "Site Number": 602128,
  "Site Name": "AKATSI3",
  "Serial Number": "80000103039820130071",
  "Tracker IMEI": 0,
  "Geofence Distance": 103,
  "Tracker": "No",
  "Latitude": 6.14367816666667,
  "Longitude": 0.807972616666667
 },
 {
  "Date": "03-Apr-24",
  "Site Number": 602137,
  "Site Name": "EMEFESTATEMATEHEKO",
  "Serial Number": "80000118069820470195",
  "Tracker IMEI": 0,
  "Geofence Distance": 113,
  "Tracker": "No"
 },
 {
  "Date": "28-Jun-24",
  "Site Number": 602154,
  "Site Name": "EMEFESTATE",
  "Serial Number": "80000213129723370080",
  "Tracker IMEI": 0,
  "Geofence Distance": 106,
  "Tracker": "No",
  "Latitude": 5.6273,
  "Longitude": -0.0227591
 },
 {
  "Date": "23-Aug-24",
  "Site Number": 602166,
  "Site Name": "ESSAMAN",
  "Serial Number": "80000118109721492603",
  "Tracker IMEI": 0,
  "Geofence Distance": 105,
  "Tracker": "No",
  "Latitude": 5.0100135,
  "Longitude": -2.0862793
 },
 {
  "Date": "11-Jul-24",
  "Site Number": 602288,
  "Site Name": "DENU2(REP)",
  "Serial Number": "80000103039820140321",
  "Tracker IMEI": 0,
  "Geofence Distance": 101,
  "Tracker": "No",
  "Latitude": 6.08693,
  "Longitude": 1.13113166666667
 },
 {
  "Date": "31-Jul-24",
  "Site Number": 602294,
  "Site Name": "KUTE",
  "Serial Number": "80000213079722260813",
  "Tracker IMEI": 0,
  "Geofence Distance": 105,
  "Tracker": "No",
  "Latitude": 7.3761071,
  "Longitude": 0.6084705
 },
 {
  "Date": "30-Aug-24",
  "Site Number": 602392,
  "Site Name": "PRESTEA4",
  "Serial Number": "80000118109721500757",
  "Tracker IMEI": 0,
  "Geofence Distance": 100,
  "Tracker": "No",
  "Latitude": 5.4428544,
  "Longitude": -2.1344542
 },
 {
  "Date": "15-Jul-24",
  "Site Number": 602394,
  "Site Name": "AKATSI4",
  "Serial Number": "80000269019819340179",
  "Tracker IMEI": 0,
  "Geofence Distance": 104,
  "Tracker": "No",
  "Latitude": 6.13017978333333,
  "Longitude": 0.802617366666667
 },
 {
  "Date": "21-Aug-24",
  "Site Number": 602437,
  "Site Name": "ABOADZE2",
  "Serial Number": "80000118079821150161",
  "Tracker IMEI": 0,
  "Geofence Distance": 106,
  "Tracker": "No",
  "Latitude": 4.98499748,
  "Longitude": -1.63931123
 },
 {
  "Date": "27-Aug-24",
  "Site Number": 602447,
  "Site Name": "KEDADWEN",
  "Serial Number": "80000103039820130158",
  "Tracker IMEI": 0,
  "Geofence Distance": 100,
  "Tracker": "No",
  "Latitude": 5.0267327,
  "Longitude": -2.0849839
 },
 {
  "Date": "16-Jul-24",
  "Site Number": 602469,
  "Site Name": "KPELIKOPE2",
  "Serial Number": "80000103039820130273",
  "Tracker IMEI": 0,
  "Geofence Distance": 101,
  "Tracker": "No",
  "Latitude": 6.1829202,
  "Longitude": 0.949404783333333
 },
 {
  "Date": "01-Aug-24",
  "Site Number": 602553,
  "Site Name": "DAMBAI2",
  "Serial Number": "80000103039820160217",
  "Tracker IMEI": 0,
  "Geofence Distance": 101,
  "Tracker": "No",
  "Latitude": 8.0713467,
  "Longitude": 0.1826346
 },
 {
  "Date": "16-Jul-24",
  "Site Number": 602558,
  "Site Name": "TSIAME",
  "Serial Number": "80000103039820130148",
  "Tracker IMEI": 0,
  "Geofence Distance": 105,
  "Tracker": "No",
  "Latitude": 6.00264541666667,
  "Longitude": 0.85967605
 },
 {
  "Date": "23-Aug-24",
  "Site Number": 602566,
  "Site Name": "DIXCOVE",
  "Serial Number": "80000103029820080193",
  "Tracker IMEI": 0,
  "Geofence Distance": 104,
  "Tracker": "No",
  "Latitude": 4.8009781,
  "Longitude": -1.950171
 },
 {
  "Date": "23-Apr-24",
  "Site Number": 602598,
  "Site Name": "PILLA2KBOAT",
  "Serial Number": "80000213129723370173",
  "Tracker IMEI": 0,
  "Tracker": "No"
 },
 {
  "Date": "28-Aug-24",
  "Site Number": 602624,
  "Site Name": "TARKWABUDU",
  "Serial Number": "80000118109721500544",
  "Tracker IMEI": 0,
  "Geofence Distance": 101,
  "Tracker": "No",
  "Latitude": 5.3271989,
  "Longitude": -1.9814762
 },
 {
  "Date": "09-May-24",
  "Site Number": 602705,
  "Site Name": "OFANKORNEW",
  "Serial Number": "80000269019819250555",
  "Tracker IMEI": 0,
  "Tracker": "No",
  "Latitude": 5.65460717141503,
  "Longitude": -0.276156381659212
 },
 {
  "Date": "23-Aug-24",
  "Site Number": 602749,
  "Site Name": "KASOAOFANKOR",
  "Serial Number": "80000118109721501280",
  "Tracker IMEI": 0,
  "Geofence Distance": 116,
  "Tracker": "No",
  "Latitude": 5.5804261,
  "Longitude": -0.4475526
 },
 {
  "Date": "17-Apr-24",
  "Site Number": 602951,
  "Site Name": "AMASAMANHOSPITAL",
  "Serial Number": "80000035029819430050",
  "Tracker IMEI": 0,
  "Geofence Distance": 108,
  "Tracker": "No",
  "Latitude": 5.70056802917606,
  "Longitude": -0.297434627535806
 },
 {
  "Date": "19-Jul-24",
  "Site Number": 603011,
  "Site Name": "AKWAPIMMAMPONG",
  "Serial Number": "80000035029819400102",
  "Tracker IMEI": 0,
  "Geofence Distance": 101,
  "Tracker": "No",
  "Latitude": 5.9231745,
  "Longitude": -0.1307901
 },
 {
  "Date": "18-Apr-24",
  "Site Number": 603190,
  "Site Name": "NSAKINA2",
  "Serial Number": "80000014019819510097",
  "Tracker IMEI": 0,
  "Geofence Distance": 109,
  "Tracker": "No",
  "Latitude": 5.67051963021968,
  "Longitude": -0.324072998391921
 },
 {
  "Date": "15-Apr-24",
  "Site Number": 603690,
  "Site Name": "AFIENYADAWENYARD",
  "Serial Number": "80000118099821411162",
  "Tracker IMEI": 0,
  "Geofence Distance": 107,
  "Tracker": "No",
  "Latitude": 5.7894303,
  "Longitude": 0.020513
 },
 {
  "Date": "28-Jun-24",
  "Site Number": 603699,
  "Site Name": "NUNGUA3",
  "Serial Number": "80000213079722260962",
  "Tracker IMEI": 0,
  "Geofence Distance": 100,
  "Tracker": "No",
  "Latitude": 5.60953742188785,
  "Longitude": -0.0696197942339456
 },
 {
  "Date": "28-Jun-24",
  "Site Number": 603702,
  "Site Name": "NUNGUA4",
  "Serial Number": "80000118109721493203",
  "Tracker IMEI": 0,
  "Geofence Distance": 100,
  "Tracker": "No",
  "Latitude": 5.60333343728624,
  "Longitude": -0.075378332247152
 },
 {
  "Date": "02-Jul-24",
  "Site Number": 604396,
  "Site Name": "SPINTEXOKPOIGONO",
  "Serial Number": "80000118059820380164",
  "Tracker IMEI": 0,
  "Geofence Distance": 102,
  "Tracker": "No",
  "Latitude": 5.6405116,
  "Longitude": -0.1003998
 },
 {
  "Date": "05-Jul-24",
  "Site Number": 604407,
  "Site Name": "ASHAIMANMIDDLEEAST",
  "Serial Number": "80000118059820380103",
  "Tracker IMEI": 0,
  "Tracker": "No",
  "Latitude": 5.7538121,
  "Longitude": 0.0030959
 },
 {
  "Date": "16-Jul-24",
  "Site Number": 604418,
  "Site Name": "AVAFIADENYIGBA",
  "Serial Number": "80000118059820380083",
  "Tracker IMEI": 0,
  "Geofence Distance": 112,
  "Tracker": "No",
  "Latitude": 6.33174215,
  "Longitude": 0.87899455
 },
 {
  "Date": "10-Jul-24",
  "Site Number": 604557,
  "Site Name": "ODUMASELKROBO",
  "Serial Number": "80000118049820270246",
  "Tracker IMEI": 0,
  "Geofence Distance": 105,
  "Tracker": "No",
  "Latitude": 6.1497689,
  "Longitude": 0.0163981
 },
 {
  "Date": "22-Aug-24",
  "Site Number": 604705,
  "Site Name": "ANAJINAMIBIA",
  "Serial Number": "80000118099821483181",
  "Tracker IMEI": 0,
  "Geofence Distance": 103,
  "Tracker": "No"
 },
 {
  "Date": "15-Jul-24",
  "Site Number": 604784,
  "Site Name": "AKYEMMAASE",
  "Serial Number": "80000118049820290115",
  "Tracker IMEI": 0,
  "Geofence Distance": 100,
  "Tracker": "No",
  "Latitude": 6.2011783,
  "Longitude": -0.414115
 },
 {
  "Date": "16-May-24",
  "Site Number": 612717,
  "Site Name": "AMAMFROMTOPTOWN",
  "Serial Number": "80000118099821421483",
  "Tracker IMEI": 0,
  "Tracker": "No",
  "Latitude": 5.5526467,
  "Longitude": -0.4142867
 },
 {
  "Date": "09-May-24",
  "Site Number": 612806,
  "Site Name": "ABLEKUMANIC",
  "Serial Number": "80000118109721493438",
  "Tracker IMEI": 0,
  "Tracker": "No",
  "Latitude": 5.6159059,
  "Longitude": -0.2989342
 },
 {
  "Date": "20-Aug-24",
  "Site Number": 612830,
  "Site Name": "TAKORADIRELO",
  "Serial Number": "80000118109721501200",
  "Tracker IMEI": 0,
  "Geofence Distance": 105,
  "Tracker": "No",
  "Latitude": 4.88551554,
  "Longitude": -1.75942337
 },
 {
  "Date": "22-Aug-24",
  "Site Number": 612898,
  "Site Name": "AMANFROM3",
  "Serial Number": "80000118079821180081",
  "Tracker IMEI": 0,
  "Geofence Distance": 104,
  "Tracker": "No",
  "Latitude": 5.552255,
  "Longitude": -0.4287283
 },
 {
  "Date": "09-May-24",
  "Site Number": 612945,
  "Site Name": "SOWUTUOMTABORA",
  "Serial Number": "80000118079821180099",
  "Tracker IMEI": 0,
  "Tracker": "No",
  "Latitude": 5.6281272,
  "Longitude": -0.26454
 },
 {
  "Date": "01-Aug-24",
  "Site Number": 613138,
  "Site Name": "DAMBAIREGIONALCC",
  "Serial Number": "80000118099821411068",
  "Tracker IMEI": 0,
  "Geofence Distance": 104,
  "Tracker": "No",
  "Latitude": 8.0416753,
  "Longitude": 0.2002916
 },
 {
  "Date": "28-Aug-24",
  "Site Number": 613166,
  "Site Name": "AKYIAMPIM",
  "Serial Number": "80000118099821422011",
  "Tracker IMEI": 0,
  "Geofence Distance": 104,
  "Tracker": "No",
  "Latitude": 5.2494859,
  "Longitude": -2.0011754
 },
 {
  "Date": "14-Jun-24",
  "Site Number": 613183,
  "Site Name": "NEWJERUSALEM",
  "Serial Number": "80000118099821411142",
  "Tracker IMEI": 0,
  "Geofence Distance": 102,
  "Tracker": "No",
  "Latitude": 5.7895735,
  "Longitude": -0.007751
 },
 {
  "Date": "18-Apr-24",
  "Site Number": 613208,
  "Site Name": "NSAKINA",
  "Serial Number": "80000118099821421334",
  "Tracker IMEI": 0,
  "Geofence Distance": 106,
  "Tracker": "No",
  "Latitude": 5.67497643084674,
  "Longitude": -0.328320847489833
 },
 {
  "Date": "01-Aug-24",
  "Site Number": 613235,
  "Site Name": "NKWANTA",
  "Serial Number": "80000118099821411188",
  "Tracker IMEI": 0,
  "Geofence Distance": 104,
  "Tracker": "No",
  "Latitude": 8.2438296,
  "Longitude": 0.5232656
 },
 {
  "Date": "18-Apr-24",
  "Site Number": 613276,
  "Site Name": "OBEYEYIEFIRSTLIGHT",
  "Serial Number": "80000118099821411168",
  "Tracker IMEI": 0,
  "Geofence Distance": 107,
  "Tracker": "No",
  "Latitude": 5.6842595260338,
  "Longitude": -0.327674619394988
 },
 {
  "Date": "16-Jul-24",
  "Site Number": 613296,
  "Site Name": "OHAWU",
  "Serial Number": "80000118109721493423",
  "Tracker IMEI": 0,
  "Geofence Distance": 103,
  "Tracker": "No",
  "Latitude": 6.1359423,
  "Longitude": 0.895474866666667
 },
 {
  "Date": "29-Aug-24",
  "Site Number": 602199,
  "Site Name": "NEWSUBRI",
  "Serial Number": "80000103039820170285",
  "Tracker IMEI": 0,
  "Geofence Distance": 104,
  "Tracker": "No"
 },
 {
  "Date": "28-Aug-24",
  "Site Number": 600651,
  "Site Name": "GAG2",
  "Serial Number": "80000103039820140030",
  "Tracker IMEI": 0,
  "Geofence Distance": 106,
  "Tracker": "No"
 },
 {
  "Date": "22-Aug-24",
  "Site Number": 602898,
  "Site Name": "OFANKORODUMPONG",
  "Serial Number": "80000118079821180112",
  "Tracker IMEI": 0,
  "Geofence Distance": 106,
  "Tracker": "No"
 },
 {
  "Date": "22-Aug-24",
  "Site Number": 613066,
  "Site Name": "KASOAROCKCITY",
  "Serial Number": "80000118079821150255",
  "Tracker IMEI": 0,
  "Geofence Distance": 101,
  "Tracker": "No"
 },
 {
  "Date": "21-Aug-24",
  "Site Number": 601529,
  "Site Name": "ITUMA2",
  "Serial Number": "80000118069820470105",
  "Tracker IMEI": 0,
  "Geofence Distance": 105,
  "Tracker": "No"
 },
 {
  "Date": "20-Aug-24",
  "Site Number": 601534,
  "Site Name": "TAKORADI6",
  "Serial Number": "80000118069820450550",
  "Tracker IMEI": 0,
  "Geofence Distance": 106,
  "Tracker": "No"
 },
 {
  "Date": "07-Aug-24",
  "Site Number": 602043,
  "Site Name": "AKIMODA5",
  "Serial Number": "80000014019819310225",
  "Tracker IMEI": 0,
  "Geofence Distance": 105,
  "Tracker": "No"
 },
 {
  "Date": "01-Aug-24",
  "Site Number": 600695,
  "Site Name": "DAMBAI",
  "Serial Number": "80000103029820080116",
  "Tracker IMEI": 0,
  "Geofence Distance": 103,
  "Tracker": "No"
 },
 {
  "Date": "01-Aug-24",
  "Site Number": 603126,
  "Site Name": "ASAMANKESEHOSPITALBTF",
  "Serial Number": "80000118099821411017",
  "Tracker IMEI": 0,
  "Geofence Distance": 105,
  "Tracker": "No"
 },
 {
  "Date": "01-Aug-24",
  "Site Number": 602471,
  "Site Name": "NKWANTAVR3",
  "Serial Number": "80000103039820160065",
  "Tracker IMEI": 0,
  "Geofence Distance": 105,
  "Tracker": "No"
 },
 {
  "Date": "29-Jul-24",
  "Site Number": 600717,
  "Site Name": "AMEDZOPE",
  "Serial Number": "80000269019819260028",
  "Tracker IMEI": 0,
  "Geofence Distance": 101,
  "Tracker": "No"
 },
 {
  "Date": "19-Jul-24",
  "Site Number": 604276,
  "Site Name": "HONUWE",
  "Serial Number": "80000118079820480232",
  "Tracker IMEI": 0,
  "Geofence Distance": 103,
  "Tracker": "No"
 },
 {
  "Date": "18-Jul-24",
  "Site Number": 602834,
  "Site Name": "BEPOASE",
  "Serial Number": "80000035029819510333",
  "Tracker IMEI": 0,
  "Geofence Distance": 105,
  "Tracker": "No"
 },
 {
  "Date": "16-Jul-24",
  "Site Number": 257,
  "Site Name": "KOFORIDUA12",
  "Serial Number": "80000035029819410095",
  "Tracker IMEI": 0,
  "Geofence Distance": 102,
  "Tracker": "No"
 },
 {
  "Date": "10-Jul-24",
  "Site Number": 601611,
  "Site Name": "KEDZI",
  "Serial Number": "80000118139822253586",
  "Tracker IMEI": 0,
  "Geofence Distance": 105,
  "Tracker": "No"
 },
 {
  "Date": "30-Aug-24",
  "Site Number": 601561,
  "Site Name": "WASADADISO",
  "Serial Number": "80000213079722262160",
  "Tracker IMEI": 862311065532457,
  "Geofence Distance": 112,
  "Tracker": "Yes",
  "Latitude": 5.8706533,
  "Longitude": -2.002815
 },
 {
  "Date": "28-Aug-24",
  "Site Number": 601200,
  "Site Name": "DAMINE",
  "Serial Number": "80000213079722263133",
  "Tracker IMEI": 862311065540047,
  "Sim Card Number": "8935711001083425147",
  "Geofence Distance": 118,
  "Tracker": "Yes",
  "Latitude": 5.513095,
  "Longitude": -1.8630734
 },
 {
  "Date": "27-Aug-24",
  "Site Number": 600599,
  "Site Name": "TARKWA2",
  "Serial Number": "80000213129723370098",
  "Tracker IMEI": 862311065558429,
  "Sim Card Number": "8935711001083425550",
  "Geofence Distance": 107,
  "Tracker": "Yes",
  "Latitude": 5.2905557,
  "Longitude": -1.9959965
 },
 {
  "Date": "26-Aug-24",
  "Site Number": 600565,
  "Site Name": "ELUBO",
  "Serial Number": "80000213079722262504",
  "Tracker IMEI": 862311065572818,
  "Sim Card Number": "8935711001083428091",
  "Geofence Distance": 102,
  "Tracker": "Yes",
  "Latitude": 5.284874,
  "Longitude": -2.7731864
 },
 {
  "Date": "20-Apr-24",
  "Site Number": 600139,
  "Site Name": "KWABENYA2",
  "Serial Number": "80000118099821422054",
  "Tracker IMEI": 862311065563726,
  "Sim Card Number": "8935711001083424355",
  "Geofence Distance": 112,
  "Tracker": "Yes",
  "Latitude": 5.68749166666667,
  "Longitude": -0.243818333333333
 },
 {
  "Date": "25-Aug-24",
  "Site Number": 600604,
  "Site Name": "ESSIAMA",
  "Serial Number": "80000103029820080191",
  "Tracker IMEI": 862311065532424,
  "Sim Card Number": "8935711001083425501",
  "Geofence Distance": 114,
  "Tracker": "Yes",
  "Latitude": 4.92807666666667,
  "Longitude": -2.32431333333333
 },
 {
  "Date": "06-Aug-24",
  "Site Number": 601155,
  "Site Name": "AYERIBI",
  "Serial Number": "80000269019819340351",
  "Tracker IMEI": 862311065504928,
  "Sim Card Number": "8935711001083429297",
  "Geofence Distance": 109,
  "Tracker": "Yes",
  "Latitude": 6.08903666666667,
  "Longitude": -1.12724
 },
 {
  "Date": "01-Aug-24",
  "Site Number": 600633,
  "Site Name": "OSINO",
  "Serial Number": "80000213079722262081",
  "Tracker IMEI": 862311066060557,
  "Sim Card Number": "8935711001083429347",
  "Geofence Distance": 105,
  "Tracker": "Yes",
  "Latitude": 6.3481429,
  "Longitude": -0.4832758
 },
 {
  "Date": "01-Aug-24",
  "Site Number": 600731,
  "Site Name": "DODIPAPASE",
  "Serial Number": "80000103039820160002",
  "Tracker IMEI": 862311065506246,
  "Sim Card Number": "8935711001083430154",
  "Geofence Distance": 102,
  "Tracker": "Yes",
  "Latitude": 7.7322879,
  "Longitude": 0.5109134
 },
 {
  "Date": "31-Jul-24",
  "Site Number": 601182,
  "Site Name": "WORAWORA",
  "Serial Number": "80000103029820100028",
  "Tracker IMEI": 862311065547547,
  "Sim Card Number": "8935711001083430022",
  "Geofence Distance": 106,
  "Tracker": "Yes",
  "Latitude": 7.5137931,
  "Longitude": 0.372347
 },
 {
  "Date": "31-Jul-24",
  "Site Number": 600564,
  "Site Name": "JASIKAN",
  "Serial Number": "80000118069820470179",
  "Tracker IMEI": 862311065545046,
  "Sim Card Number": "8935711001083429974",
  "Geofence Distance": 104,
  "Tracker": "Yes",
  "Latitude": 7.40947519,
  "Longitude": 0.47194769
 },
 {
  "Date": "30-Jul-24",
  "Site Number": 601187,
  "Site Name": "ABOTOASE",
  "Serial Number": "80000213079722260198",
  "Tracker IMEI": 862311065528190,
  "Sim Card Number": "8935711001083430188",
  "Geofence Distance": 113,
  "Tracker": "Yes",
  "Latitude": 7.4517127,
  "Longitude": 0.3407184
 },
 {
  "Date": "30-Jul-24",
  "Site Number": 600497,
  "Site Name": "NKAWKAW",
  "Serial Number": "80000103039820130305",
  "Tracker IMEI": 862311066088202,
  "Sim Card Number": "8935711001083429313",
  "Geofence Distance": 106,
  "Tracker": "Yes",
  "Latitude": 6.5406356,
  "Longitude": -0.7624934
 },
 {
  "Date": "29-Jul-24",
  "Site Number": 601138,
  "Site Name": "HOHOE2",
  "Serial Number": "80000103039820170013",
  "Tracker IMEI": 862311066069665,
  "Sim Card Number": "8935711001083430030",
  "Geofence Distance": 106,
  "Tracker": "Yes",
  "Latitude": 7.1461015,
  "Longitude": 0.4653027
 },
 {
  "Date": "29-Jul-24",
  "Site Number": 600734,
  "Site Name": "LIKPEMATE",
  "Serial Number": "80000213079722261302",
  "Tracker IMEI": 862311065518951,
  "Sim Card Number": "8935711001083430014",
  "Geofence Distance": 103,
  "Tracker": "Yes",
  "Latitude": 7.1824313,
  "Longitude": 0.6036907
 },
 {
  "Date": "29-Jul-24",
  "Site Number": 600709,
  "Site Name": "KIBI2",
  "Serial Number": "80000103039820130030",
  "Tracker IMEI": 862311066064583,
  "Sim Card Number": "8935711001083429339",
  "Geofence Distance": 112,
  "Tracker": "Yes",
  "Latitude": 6.1606746,
  "Longitude": -0.5558971
 },
 {
  "Date": "29-Jul-24",
  "Site Number": 600562,
  "Site Name": "KPANDO",
  "Serial Number": "80000118069820470413",
  "Tracker IMEI": 862311066098912,
  "Sim Card Number": "8935711001083430345",
  "Geofence Distance": 102,
  "Tracker": "Yes",
  "Latitude": 6.99172748252749,
  "Longitude": 0.290756151080132
 },
 {
  "Date": "12-Apr-24",
  "Site Number": 600398,
  "Site Name": "KAKASUNAKA1",
  "Serial Number": "81000020029818420149",
  "Tracker IMEI": 862311065502658,
  "Sim Card Number": "8935711001083424272",
  "Geofence Distance": 102,
  "Tracker": "Yes",
  "Latitude": 5.7243044,
  "Longitude": -0.011009
 },
 {
  "Date": "12-Mar-24",
  "Site Number": 600409,
  "Site Name": "ASHAYMAN5",
  "Serial Number": "80000118139722282294",
  "Tracker IMEI": 862311065503268,
  "Sim Card Number": "8935711001083424058",
  "Geofence Distance": 102,
  "Tracker": "Yes",
  "Latitude": 5.7209171,
  "Longitude": 0.0494893
 },
 {
  "Date": "28-Mar-24",
  "Site Number": 600442,
  "Site Name": "AFARIWASTN",
  "Serial Number": "80000035029819330010",
  "Tracker IMEI": 862311065552414,
  "Sim Card Number": "8935711001083427564",
  "Geofence Distance": 112,
  "Tracker": "Yes",
  "Latitude": 5.720526,
  "Longitude": 0.0486822
 },
 {
  "Date": "26-Jul-24",
  "Site Number": 600628,
  "Site Name": "HO",
  "Serial Number": "80000103039820170173",
  "Tracker IMEI": 862311065545954,
  "Sim Card Number": "8935711001083426707",
  "Geofence Distance": 100,
  "Tracker": "Yes",
  "Latitude": 6.6095521,
  "Longitude": 0.4439128
 },
 {
  "Date": "02-Jul-24",
  "Site Number": 600445,
  "Site Name": "TEMCOM20",
  "Serial Number": "80000118079820480135",
  "Tracker IMEI": 862311065501312,
  "Sim Card Number": "8935711001083423688",
  "Geofence Distance": 108,
  "Tracker": "Yes",
  "Latitude": 5.65718232223589,
  "Longitude": -0.0749395234100364
 },
 {
  "Date": "25-Jul-24",
  "Site Number": 601219,
  "Site Name": "KPEVE",
  "Serial Number": "80000103039820160191",
  "Tracker IMEI": 862311066098268,
  "Sim Card Number": "8935711001083427010",
  "Geofence Distance": 103,
  "Tracker": "Yes",
  "Latitude": 6.686902,
  "Longitude": 0.3316655
 },
 {
  "Date": "25-Jul-24",
  "Site Number": 601164,
  "Site Name": "HAVEETOE",
  "Serial Number": "80000103039820120250",
  "Tracker IMEI": 862311066069475,
  "Sim Card Number": "8935711001083426723",
  "Geofence Distance": 115,
  "Tracker": "Yes",
  "Latitude": 6.7579489,
  "Longitude": 0.3602772
 },
 {
  "Date": "25-Jul-24",
  "Site Number": 600588,
  "Site Name": "NSAWAM2",
  "Serial Number": "88500001059623230090",
  "Tracker IMEI": 862311066085356,
  "Sim Card Number": "8935711001083428273",
  "Geofence Distance": 114,
  "Tracker": "Yes",
  "Latitude": 5.8177483,
  "Longitude": -0.3491482
 },
 {
  "Date": "15-Apr-24",
  "Site Number": 600468,
  "Site Name": "AFIENYA",
  "Serial Number": "80000213079722262379",
  "Tracker IMEI": 862311065549998,
  "Sim Card Number": "8935711001083427622",
  "Geofence Distance": 103,
  "Tracker": "Yes",
  "Latitude": 5.8052392,
  "Longitude": 0.0008727
 },
 {
  "Date": "25-Jul-24",
  "Site Number": 601287,
  "Site Name": "BOSO2",
  "Serial Number": "80000103029820080224",
  "Tracker IMEI": 862311066087550,
  "Sim Card Number": "8935711001083427036",
  "Geofence Distance": 104,
  "Tracker": "Yes",
  "Latitude": 6.5546836,
  "Longitude": 0.1765583
 },
 {
  "Date": "24-Jul-24",
  "Site Number": 600559,
  "Site Name": "PEKI",
  "Serial Number": "80000103039820160103",
  "Tracker IMEI": 862311065536821,
  "Sim Card Number": "8935711001083426939",
  "Geofence Distance": 100,
  "Tracker": "Yes",
  "Latitude": 6.5328523,
  "Longitude": 0.2262043
 },
 {
  "Date": "17-Jul-24",
  "Site Number": 601301,
  "Site Name": "NANKESE",
  "Serial Number": "80000035019819250202",
  "Tracker IMEI": 862311065529537,
  "Sim Card Number": "8935711001083425543",
  "Geofence Distance": 105,
  "Tracker": "Yes",
  "Latitude": 6.0936767,
  "Longitude": -0.3812983
 },
 {
  "Date": "12-Jul-24",
  "Site Number": 600631,
  "Site Name": "KETA",
  "Serial Number": "80000103039820130104",
  "Tracker IMEI": 862311066072693,
  "Sim Card Number": "8935711001083430113",
  "Geofence Distance": 104,
  "Tracker": "Yes",
  "Latitude": 5.89701166666667,
  "Longitude": 0.987015
 },
 {
  "Date": "11-Jul-24",
  "Site Number": 601159,
  "Site Name": "DENU",
  "Serial Number": "80000103039820120040",
  "Tracker IMEI": 862311064220112,
  "Sim Card Number": "8935711001083424454",
  "Geofence Distance": 101,
  "Tracker": "Yes",
  "Latitude": 6.0937633,
  "Longitude": 1.14497
 },
 {
  "Date": "02-Jul-24",
  "Site Number": 601026,
  "Site Name": "NUNGUAFAM2",
  "Serial Number": "80000103039820170153",
  "Tracker IMEI": 862311065509596,
  "Sim Card Number": "8935711001083427093",
  "Geofence Distance": 101,
  "Tracker": "Yes",
  "Latitude": 5.6613904,
  "Longitude": -0.0934165
 },
 {
  "Date": "19-Apr-24",
  "Site Number": 600885,
  "Site Name": "KWABENYA4",
  "Serial Number": "80000103039820160386",
  "Tracker IMEI": 862311065537670,
  "Sim Card Number": "8935711001083424298",
  "Geofence Distance": 102,
  "Tracker": "Yes",
  "Latitude": 5.69992166666667,
  "Longitude": -0.252003333333333
 },
 {
  "Date": "31-Jul-24",
  "Site Number": 601412,
  "Site Name": "AMANKWAKROM",
  "Serial Number": "80000103029820080204",
  "Tracker IMEI": 862311065536771,
  "Sim Card Number": "8935711001083428265",
  "Geofence Distance": 114,
  "Tracker": "Yes",
  "Latitude": 7.0539933,
  "Longitude": 0.0238783
 },
 {
  "Date": "30-Jul-24",
  "Site Number": 601512,
  "Site Name": "JASIKAN2",
  "Serial Number": "80000103029820100001",
  "Tracker IMEI": 862311066102151,
  "Sim Card Number": "8935711001083430048",
  "Geofence Distance": 106,
  "Tracker": "Yes",
  "Latitude": 7.4298704,
  "Longitude": 0.4272868
 },
 {
  "Date": "29-Jul-24",
  "Site Number": 601587,
  "Site Name": "KIBI3",
  "Serial Number": "80000103029820080063",
  "Tracker IMEI": 862311066059336,
  "Sim Card Number": "8935711001083428117",
  "Geofence Distance": 101,
  "Tracker": "Yes",
  "Latitude": 6.178815,
  "Longitude": -0.546545
 },
 {
  "Date": "18-Jul-24",
  "Site Number": 601592,
  "Site Name": "BEGORO",
  "Serial Number": "80000035019819240076",
  "Tracker IMEI": 862311065527648,
  "Sim Card Number": "8935711001083429214",
  "Geofence Distance": 107,
  "Tracker": "Yes",
  "Latitude": 6.36709,
  "Longitude": -0.36521
 },
 {
  "Date": "29-Jul-24",
  "Site Number": 601601,
  "Site Name": "TCHERMANTE",
  "Serial Number": "80000269019819510085",
  "Tracker IMEI": 862311065491951,
  "Sim Card Number": "8935711001083429164",
  "Geofence Distance": 100,
  "Tracker": "Yes",
  "Latitude": 5.9045833,
  "Longitude": -0.384422
 },
 {
  "Date": "25-Aug-24",
  "Site Number": 601655,
  "Site Name": "PRINCETOWN",
  "Serial Number": "80000118139822252957",
  "Tracker IMEI": 862311066099134,
  "Sim Card Number": "8935711001083391562",
  "Geofence Distance": 101,
  "Tracker": "Yes",
  "Latitude": 4.79689333333333,
  "Longitude": -2.13412666666667
 },
 {
  "Date": "06-Aug-24",
  "Site Number": 601682,
  "Site Name": "ODANKWANTA",
  "Serial Number": "80000118099821411290",
  "Tracker IMEI": 862311066086768,
  "Sim Card Number": "8935711001083428125",
  "Geofence Distance": 115,
  "Tracker": "Yes",
  "Latitude": 5.2924826,
  "Longitude": -1.0517839
 },
 {
  "Date": "06-Aug-24",
  "Site Number": 601850,
  "Site Name": "ODA3",
  "Serial Number": "80000103029820080026",
  "Tracker IMEI": 862311065508515,
  "Sim Card Number": "8935711001083425121",
  "Geofence Distance": 114,
  "Tracker": "Yes",
  "Latitude": 5.93309,
  "Longitude": -0.97956
 },
 {
  "Date": "11-Jul-24",
  "Site Number": 601852,
  "Site Name": "AGOMANYA2",
  "Serial Number": "80000103039820140112",
  "Tracker IMEI": 862311065548552,
  "Sim Card Number": "8935711001083425428",
  "Geofence Distance": 105,
  "Tracker": "Yes",
  "Latitude": 6.1482096,
  "Longitude": 0.0208456
 },
 {
  "Date": "07-Aug-24",
  "Site Number": 601858,
  "Site Name": "ASAMANKESE4",
  "Serial Number": "80000271019819510270",
  "Tracker IMEI": 862311064219940,
  "Sim Card Number": "8935711001083425139",
  "Geofence Distance": 107,
  "Tracker": "Yes",
  "Latitude": 5.8646591,
  "Longitude": -0.6618006
 },
 {
  "Date": "18-Jul-24",
  "Site Number": 601888,
  "Site Name": "HO7",
  "Serial Number": "80000271019819080077",
  "Tracker IMEI": 862311065502609,
  "Sim Card Number": "8935711001083423696",
  "Geofence Distance": 101,
  "Tracker": "Yes",
  "Latitude": 6.59347008675485,
  "Longitude": 0.463677429978556
 },
 {
  "Date": "10-Jul-24",
  "Site Number": 601912,
  "Site Name": "AGAVEDZI",
  "Serial Number": "80000118139822253588",
  "Tracker IMEI": 862311065533141,
  "Sim Card Number": "8935711001083427259",
  "Geofence Distance": 108,
  "Tracker": "Yes",
  "Latitude": 5.98326166666667,
  "Longitude": 1.02951333333333
 },
 {
  "Date": "19-Jul-24",
  "Site Number": 601924,
  "Site Name": "BREKESU",
  "Serial Number": "80000035029819260447",
  "Tracker IMEI": 862311065577023,
  "Sim Card Number": "8935711001083428299",
  "Geofence Distance": 103,
  "Tracker": "Yes",
  "Latitude": 5.7558383,
  "Longitude": -0.2329333
 },
 {
  "Date": "30-Jul-24",
  "Site Number": 601937,
  "Site Name": "TEPAAMANYA",
  "Serial Number": "80000103039820160044",
  "Tracker IMEI": 862311065532515,
  "Sim Card Number": "8935711001083430451",
  "Geofence Distance": 108,
  "Tracker": "Yes",
  "Latitude": 7.454049,
  "Longitude": 0.3400232
 },
 {
  "Date": "16-Jul-24",
  "Site Number": 601961,
  "Site Name": "KDUAGARDEN",
  "Serial Number": "80000014019819520007",
  "Tracker IMEI": 862311065502419,
  "Sim Card Number": "8935711001083430295",
  "Geofence Distance": 102,
  "Tracker": "Yes",
  "Latitude": 6.092925,
  "Longitude": -0.26773
 },
 {
  "Date": "30-Jul-24",
  "Site Number": 601966,
  "Site Name": "MPRAESO",
  "Serial Number": "80000269019819420412",
  "Tracker IMEI": 862311066092501,
  "Sim Card Number": "8935711001083429354",
  "Geofence Distance": 108,
  "Tracker": "Yes",
  "Latitude": 6.5936567,
  "Longitude": -0.737725
 },
 {
  "Date": "18-Jul-24",
  "Site Number": 601981,
  "Site Name": "HOFOREST",
  "Serial Number": "80000271019819510255",
  "Tracker IMEI": 862311065492389,
  "Sim Card Number": "8935711001083426970",
  "Geofence Distance": 100,
  "Tracker": "Yes",
  "Latitude": 6.6176632,
  "Longitude": 0.4618372
 },
 {
  "Date": "20-Jul-24",
  "Site Number": 601984,
  "Site Name": "HOAWATDOME",
  "Serial Number": "80000269019819510213",
  "Tracker IMEI": 862311065506584,
  "Sim Card Number": "8935711001083426947",
  "Geofence Distance": 115,
  "Tracker": "Yes",
  "Latitude": 6.6030227505105,
  "Longitude": 0.488144289485999
 },
 {
  "Date": "26-Aug-24",
  "Site Number": 602000,
  "Site Name": "AKANGO",
  "Serial Number": "80000103039820130199",
  "Tracker IMEI": 862311065568980,
  "Sim Card Number": "8935711001083430436",
  "Geofence Distance": 110,
  "Tracker": "Yes",
  "Latitude": 5.06829833333333,
  "Longitude": -2.19217333333333
 },
 {
  "Date": "28-Aug-24",
  "Site Number": 602030,
  "Site Name": "ESUASO",
  "Serial Number": "80000103039820130098",
  "Tracker IMEI": 862311065519819,
  "Sim Card Number": "8935711001083425469",
  "Geofence Distance": 113,
  "Tracker": "Yes",
  "Latitude": 5.1962325,
  "Longitude": -1.9320912
 },
 {
  "Date": "06-Aug-24",
  "Site Number": 602044,
  "Site Name": "AKIMODA6",
  "Serial Number": "80000269019819320245",
  "Tracker IMEI": 862311066086818,
  "Sim Card Number": "8935711001083428034",
  "Geofence Distance": 109,
  "Tracker": "Yes",
  "Latitude": 5.92618666666667,
  "Longitude": -0.995233333333333
 },
 {
  "Date": "19-Jul-24",
  "Site Number": 602255,
  "Site Name": "ASHESHIUNI",
  "Serial Number": "80000118099821411062",
  "Tracker IMEI": 862311065558809,
  "Sim Card Number": "8935711001083428315",
  "Geofence Distance": 112,
  "Tracker": "Yes",
  "Latitude": 5.7612879,
  "Longitude": -0.2191291
 },
 {
  "Date": "26-Jul-24",
  "Site Number": 602300,
  "Site Name": "AHWEREASE",
  "Serial Number": "82000199029819480099",
  "Tracker IMEI": 862311066073790,
  "Sim Card Number": "8935711001083428257",
  "Geofence Distance": 107,
  "Tracker": "Yes",
  "Latitude": 5.8207133,
  "Longitude": -0.3995149
 },
 {
  "Date": "25-Aug-24",
  "Site Number": 602442,
  "Site Name": "AXIM3",
  "Serial Number": "80000103039820160168",
  "Tracker IMEI": 862311065556142,
  "Sim Card Number": "8935711001083425485",
  "Geofence Distance": 110,
  "Tracker": "Yes",
  "Latitude": 4.87480166666667,
  "Longitude": -2.20446833333333
 },
 {
  "Date": "30-Aug-24",
  "Site Number": 602560,
  "Site Name": "AKPNG3",
  "Serial Number": "80000118069820330219",
  "Tracker IMEI": 862311065512509,
  "Sim Card Number": "8935711001083425048",
  "Geofence Distance": 108,
  "Tracker": "Yes",
  "Latitude": 5.8037363,
  "Longitude": -2.0734878
 },
 {
  "Date": "25-Aug-24",
  "Site Number": 602581,
  "Site Name": "TANDAN",
  "Serial Number": "80000103039820160432",
  "Tracker IMEI": 862311065552596,
  "Sim Card Number": "8935711001083425402",
  "Geofence Distance": 114,
  "Tracker": "Yes",
  "Latitude": 5.04896166666667,
  "Longitude": -2.37833333333333
 },
 {
  "Date": "31-Jul-24",
  "Site Number": 602613,
  "Site Name": "POASECEMENT",
  "Serial Number": "80000103029820100016",
  "Tracker IMEI": 862311065541102,
  "Sim Card Number": "8935711001083430303",
  "Geofence Distance": 111,
  "Tracker": "Yes",
  "Latitude": 7.649291,
  "Longitude": 0.5194799
 },
 {
  "Date": "06-Aug-24",
  "Site Number": 602719,
  "Site Name": "KWAMEDONKOR",
  "Serial Number": "80000025049821411170",
  "Tracker IMEI": 862311065519934,
  "Sim Card Number": "8935711001083428141",
  "Geofence Distance": 117,
  "Tracker": "Yes",
  "Latitude": 6.04683833333333,
  "Longitude": -1.08979666666667
 },
 {
  "Date": "20-Jul-24",
  "Site Number": 602733,
  "Site Name": "HOESTATE",
  "Serial Number": "80000118079821150243",
  "Tracker IMEI": 862311066098565,
  "Sim Card Number": "8935711001083426905",
  "Geofence Distance": 114,
  "Tracker": "Yes",
  "Latitude": 6.60115936458819,
  "Longitude": 0.510928058120868
 },
 {
  "Date": "26-Jul-24",
  "Site Number": 602882,
  "Site Name": "KWASITENTEN",
  "Serial Number": "80000035029819480369",
  "Tracker IMEI": 862311064208315,
  "Sim Card Number": "8935711001083425154",
  "Geofence Distance": 100,
  "Tracker": "Yes",
  "Latitude": 5.808575,
  "Longitude": -0.4291333
 },
 {
  "Date": "17-Apr-24",
  "Site Number": 603521,
  "Site Name": "ABEASE",
  "Serial Number": "80000118099821421530",
  "Tracker IMEI": 862311065518001,
  "Sim Card Number": "8935711001083423936",
  "Geofence Distance": 107,
  "Tracker": "Yes",
  "Latitude": 5.69226305359318,
  "Longitude": -0.312417288287246
 },
 {
  "Date": "25-Aug-24",
  "Site Number": 603575,
  "Site Name": "AIYINASE",
  "Serial Number": "80000118069820470012",
  "Tracker IMEI": 862311066059997,
  "Sim Card Number": "8935711001083430196",
  "Geofence Distance": 104,
  "Tracker": "Yes",
  "Latitude": 5.0373029,
  "Longitude": -2.4640523
 },
 {
  "Date": "30-Jul-24",
  "Site Number": 604246,
  "Site Name": "NKAWKAW1",
  "Serial Number": "80000213079722261557",
  "Tracker IMEI": 862311065507012,
  "Sim Card Number": "8935711001083428166",
  "Geofence Distance": 114,
  "Tracker": "Yes",
  "Latitude": 6.5566152,
  "Longitude": -0.7778171
 },
 {
  "Date": "31-Jul-24",
  "Site Number": 604492,
  "Site Name": "TETEMAN",
  "Serial Number": "80000103079820360073",
  "Tracker IMEI": 862311065492538,
  "Sim Card Number": "8935711001083430170",
  "Geofence Distance": 101,
  "Tracker": "Yes",
  "Latitude": 7.3155111,
  "Longitude": 0.5097747
 },
 {
  "Date": "26-Jul-24",
  "Site Number": 604499,
  "Site Name": "ADEISO",
  "Serial Number": "80000103039820170151",
  "Tracker IMEI": 862311065504654,
  "Sim Card Number": "8935711001083429388",
  "Geofence Distance": 114,
  "Tracker": "Yes",
  "Latitude": 5.7977533,
  "Longitude": -0.4824433
 },
 {
  "Date": "19-Apr-24",
  "Site Number": 604603,
  "Site Name": "DZORWULU",
  "Serial Number": "80000118059820380013",
  "Tracker IMEI": 862311064201039,
  "Sim Card Number": "8935711001083424215",
  "Geofence Distance": 106,
  "Tracker": "Yes",
  "Latitude": 5.6165888,
  "Longitude": -0.1944707
 },
 {
  "Date": "26-Jul-24",
  "Site Number": 604649,
  "Site Name": "TEMAJASIKANRD",
  "Serial Number": "80000118059820380010",
  "Tracker IMEI": 862311066103076,
  "Sim Card Number": "8935711001083426988",
  "Geofence Distance": 114,
  "Tracker": "Yes",
  "Latitude": 6.38044282760955,
  "Longitude": 0.258000628436596
 },
 {
  "Date": "30-Aug-24",
  "Site Number": 613165,
  "Site Name": "WASSAFARMERS",
  "Serial Number": "80000118099821421388",
  "Tracker IMEI": 862311065515544,
  "Sim Card Number": "8935711001083425022",
  "Geofence Distance": 118,
  "Tracker": "Yes",
  "Latitude": 5.776157,
  "Longitude": -2.0847024
 },
 {
  "Date": "26-Jul-24",
  "Site Number": 613168,
  "Site Name": "TAVIEFE",
  "Serial Number": "80000118099821411152",
  "Tracker IMEI": 862311065493544,
  "Sim Card Number": "8935711001083426863",
  "Geofence Distance": 117,
  "Tracker": "Yes",
  "Latitude": 6.6652327,
  "Longitude": 0.4727472
 },
 {
  "Date": "25-Jul-24",
  "Site Number": 613245,
  "Site Name": "TAFIMADOR",
  "Serial Number": "80000118099821411165",
  "Tracker IMEI": 862311066071349,
  "Sim Card Number": "8935711001083426913",
  "Geofence Distance": 111,
  "Tracker": "Yes",
  "Latitude": 6.8623391026631,
  "Longitude": 0.397761538624763
 },
 {
  "Date": "26-Aug-24",
  "Site Number": 613247,
  "Site Name": "GWIRAESHIEM",
  "Serial Number": "80000118099821411129",
  "Tracker IMEI": 862311065533562,
  "Sim Card Number": "8935711001083430469",
  "Geofence Distance": 113,
  "Tracker": "Yes",
  "Latitude": 5.13855833333333,
  "Longitude": -2.19407833333333
 },
 {
  "Date": "26-Aug-24",
  "Site Number": 613248,
  "Site Name": "GWIRAENYINASE",
  "Serial Number": "80000118099821411130",
  "Tracker IMEI": 862311065542233,
  "Sim Card Number": "8935711001083425345",
  "Geofence Distance": 108,
  "Tracker": "Yes",
  "Latitude": 5.02190333333333,
  "Longitude": -2.17124
 },
 {
  "Date": "25-Jul-24",
  "Site Number": 613472,
  "Site Name": "NSAWAM3RELO",
  "Serial Number": "80000035029819250546",
  "Tracker IMEI": 862311065507079,
  "Sim Card Number": "8935711001083430006",
  "Geofence Distance": 114,
  "Tracker": "Yes",
  "Latitude": 5.8108201,
  "Longitude": -0.333875
 },
 {
  "Date": "26-Aug-24",
  "Site Number": 600557,
  "Site Name": "HALFASSINI",
  "Serial Number": "80000103039820130106",
  "Tracker IMEI": 862311066085182,
  "Sim Card Number": "8935711001083430543",
  "Geofence Distance": 103,
  "Tracker": "Yes"
 },
 {
  "Date": "25-Aug-24",
  "Site Number": 601211,
  "Site Name": "SANZULE",
  "Serial Number": "80000118109721500468",
  "Tracker IMEI": 862311066082262,
  "Sim Card Number": "8935711001083429222",
  "Geofence Distance": 116,
  "Tracker": "Yes"
 },
 {
  "Date": "07-Aug-24",
  "Site Number": 601589,
  "Site Name": "KADE2",
  "Serial Number": "80000014019819310381",
  "Tracker IMEI": 862311065527481,
  "Sim Card Number": "8935711001083425055",
  "Geofence Distance": 109,
  "Tracker": "Yes"
 },
 {
  "Date": "07-Aug-24",
  "Site Number": 601302,
  "Site Name": "AKIMWENCHI",
  "Serial Number": "80000035029819480083",
  "Tracker IMEI": 862311065504175,
  "Sim Card Number": "8935711001083425030",
  "Geofence Distance": 112,
  "Tracker": "Yes"
 },
 {
  "Date": "02-Aug-24",
  "Site Number": 600694,
  "Site Name": "ZIOPE",
  "Serial Number": "80000213079722261898",
  "Tracker IMEI": 862311065567776,
  "Sim Card Number": "8935711001083430477",
  "Geofence Distance": 103,
  "Tracker": "Yes"
 },
 {
  "Date": "31-Jul-24",
  "Site Number": 600730,
  "Site Name": "DZINDZINSO",
  "Serial Number": "80000103039820120132",
  "Tracker IMEI": 862311066100932,
  "Sim Card Number": "8935711001083430212",
  "Geofence Distance": 108,
  "Tracker": "Yes"
 },
 {
  "Date": "30-Jul-24",
  "Site Number": 603092,
  "Site Name": "HOHOESANTROFI",
  "Serial Number": "80000118099821421321",
  "Tracker IMEI": 862311066101427,
  "Sim Card Number": "8935711001083430246",
  "Geofence Distance": 105,
  "Tracker": "Yes"
 },
 {
  "Date": "26-Jul-24",
  "Site Number": 601140,
  "Site Name": "ABUTIA",
  "Serial Number": "80000103039820160051",
  "Tracker IMEI": 862311065520155,
  "Sim Card Number": "8935711001083424595",
  "Geofence Distance": 108,
  "Tracker": "Yes"
 },
 {
  "Date": "25-Jul-24",
  "Site Number": 602629,
  "Site Name": "ANDONO1",
  "Serial Number": "80000103039820120066",
  "Tracker IMEI": 862311064202557,
  "Sim Card Number": "8935711001083423944",
  "Geofence Distance": 103,
  "Tracker": "Yes"
 },
 {
  "Date": "25-Jul-24",
  "Site Number": 600581,
  "Site Name": "ASIKUMA",
  "Serial Number": "80000118099821483029",
  "Tracker IMEI": 862311066072347,
  "Sim Card Number": "8935711001083426921",
  "Geofence Distance": 116,
  "Tracker": "Yes"
 },
 {
  "Date": "19-Jul-24",
  "Site Number": 604268,
  "Site Name": "KITASI",
  "Serial Number": "80000118049820280023",
  "Tracker IMEI": 862311065505446,
  "Sim Card Number": "8935711001083428083",
  "Geofence Distance": 103,
  "Tracker": "Yes"
 },
 {
  "Date": "26-Jun-24",
  "Site Number": 600018,
  "Site Name": "OSUOFFICE",
  "Serial Number": "80000118139822253528",
  "Tracker IMEI": 862311065552448,
  "Sim Card Number": "8935711001083392230",
  "Tracker": "Yes",
  "Latitude": 5.5614097,
  "Longitude": -0.1806733
 },
 {
  "Date": "10-Jun-24",
  "Site Number": 600069,
  "Site Name": "MCARTHY1",
  "Serial Number": "80000103039820160316",
  "Tracker IMEI": 862311065526483,
  "Sim Card Number": "8935711001083423753",
  "Tracker": "Yes",
  "Latitude": 5.567075,
  "Longitude": -0.295883333333333
 },
 {
  "Date": "10-Jun-24",
  "Site Number": 600085,
  "Site Name": "MALLAMJUNC.",
  "Serial Number": "80000118069820450453",
  "Tracker IMEI": 862311065500744,
  "Sim Card Number": "8935711001083427085",
  "Tracker": "Yes",
  "Latitude": 5.575545,
  "Longitude": -0.282206666666667
 },
 {
  "Date": "05-Jul-24",
  "Site Number": 600087,
  "Site Name": "NIIBOI",
  "Serial Number": "80000213079722260311",
  "Tracker IMEI": 862311064224452,
  "Sim Card Number": "8935711001083427390",
  "Tracker": "Yes",
  "Latitude": 5.61613333333333,
  "Longitude": -0.250241666666667
 },
 {
  "Date": "24-Apr-24",
  "Site Number": 600089,
  "Site Name": "PARAKU",
  "Serial Number": "80000118099821411122",
  "Tracker IMEI": 862311065532358,
  "Sim Card Number": "8935711001083424488",
  "Tracker": "Yes",
  "Latitude": 5.64056833333333,
  "Longitude": -0.226918333333333
 },
 {
  "Date": "11-Jun-24",
  "Site Number": 600114,
  "Site Name": "BORTIANOR",
  "Serial Number": "80000118079820480266",
  "Tracker IMEI": 862311065542688,
  "Sim Card Number": "8935711001083423837",
  "Tracker": "Yes",
  "Latitude": 5.5377967,
  "Longitude": -0.355815
 },
 {
  "Date": "04-Jul-24",
  "Site Number": 600126,
  "Site Name": "ASHLYBOTWE",
  "Serial Number": "80000118139722282408",
  "Tracker IMEI": 862311066107358,
  "Sim Card Number": "8935711001083427044",
  "Tracker": "Yes",
  "Latitude": 5.6842251,
  "Longitude": -0.1389748
 },
 {
  "Date": "22-Apr-24",
  "Site Number": 600132,
  "Site Name": "BURKINA",
  "Serial Number": "80000118139822253524",
  "Tracker IMEI": 862311064202599,
  "Sim Card Number": "8935711001083427648",
  "Tracker": "Yes",
  "Latitude": 5.68017333333333,
  "Longitude": -0.255666666666667
 },
 {
  "Date": "14-May-24",
  "Site Number": 600134,
  "Site Name": "ACHIMOTA1",
  "Serial Number": "80000118099821411231",
  "Tracker IMEI": 862311065487413,
  "Sim Card Number": "8935711001083424546",
  "Tracker": "Yes",
  "Latitude": 5.6208173,
  "Longitude": -0.1852841
 },
 {
  "Date": "15-May-24",
  "Site Number": 600135,
  "Site Name": "ACHIMOTA2",
  "Serial Number": "80000213079722260800",
  "Tracker IMEI": 862311065543025,
  "Sim Card Number": "8935711001083424330",
  "Tracker": "Yes",
  "Latitude": 5.6334792,
  "Longitude": -0.2206524
 },
 {
  "Date": "10-May-24",
  "Site Number": 600141,
  "Site Name": "OFANKOR2",
  "Serial Number": "80000118069820470329",
  "Tracker IMEI": 862311065552356,
  "Sim Card Number": "8935711001083424264",
  "Tracker": "Yes",
  "Latitude": 5.64338333333333,
  "Longitude": -0.265035
 },
 {
  "Date": "26-Jun-24",
  "Site Number": 600153,
  "Site Name": "OSULEBANES",
  "Serial Number": "80000118099821421546",
  "Tracker IMEI": 862311065526806,
  "Sim Card Number": "8935711001083427473",
  "Tracker": "Yes",
  "Latitude": 5.5662621,
  "Longitude": -0.1835136
 },
 {
  "Date": "27-Jun-24",
  "Site Number": 600154,
  "Site Name": "LABADI2",
  "Serial Number": "80000118069820450434",
  "Tracker IMEI": 862311065572651,
  "Sim Card Number": "8935711001083424165",
  "Tracker": "Yes",
  "Latitude": 5.5669883,
  "Longitude": -0.1552317
 },
 {
  "Date": "25-Apr-24",
  "Site Number": 600177,
  "Site Name": "HAATSO",
  "Serial Number": "80000118059820380156",
  "Tracker IMEI": 862311065537498,
  "Sim Card Number": "8935711001083424066",
  "Tracker": "Yes",
  "Latitude": 5.67973833333333,
  "Longitude": -0.197165
 },
 {
  "Date": "28-Jun-24",
  "Site Number": 600375,
  "Site Name": "TEMASSNIT",
  "Serial Number": "80000103039820160007",
  "Tracker IMEI": 862311065503045,
  "Sim Card Number": "8935711001083424249",
  "Tracker": "Yes",
  "Latitude": 5.6253283,
  "Longitude": -0.0192617
 },
 {
  "Date": "28-Jun-24",
  "Site Number": 600392,
  "Site Name": "NUNGUA2",
  "Serial Number": "80000118069820470429",
  "Tracker IMEI": 862311065497941,
  "Sim Card Number": "8935711001083427341",
  "Tracker": "Yes",
  "Latitude": 5.60728772667647,
  "Longitude": -0.0765943371383123
 },
 {
  "Date": "05-Jul-24",
  "Site Number": 600394,
  "Site Name": "ASHLEBANON2",
  "Serial Number": "80000118069820470194",
  "Tracker IMEI": 862311066069640,
  "Sim Card Number": "8935711001083426889",
  "Tracker": "Yes",
  "Latitude": 5.7085828,
  "Longitude": -0.0466966
 },
 {
  "Date": "04-Jul-24",
  "Site Number": 600419,
  "Site Name": "BATSONA2",
  "Serial Number": "80000118109721492868",
  "Tracker IMEI": 862311065532036,
  "Sim Card Number": "8935711001083423761",
  "Tracker": "Yes",
  "Latitude": 5.63712374431979,
  "Longitude": -0.0901423105118719
 },
 {
  "Date": "04-Jul-24",
  "Site Number": 600432,
  "Site Name": "LASHIBI2",
  "Serial Number": "80000118069820470161",
  "Tracker IMEI": 862311065541284,
  "Sim Card Number": "8935711001083423852",
  "Tracker": "Yes",
  "Latitude": 5.6323544,
  "Longitude": -0.0746182
 },
 {
  "Date": "29-Jun-24",
  "Site Number": 600451,
  "Site Name": "SAKIMAN",
  "Serial Number": "80000118069820470337",
  "Tracker IMEI": 862311065547208,
  "Sim Card Number": "8935711001083426871",
  "Tracker": "Yes",
  "Latitude": 5.73888,
  "Longitude": 0.011345
 },
 {
  "Date": "11-Jul-24",
  "Site Number": 600629,
  "Site Name": "AGBOZOME",
  "Serial Number": "80000213079722262720",
  "Tracker IMEI": 862311065483982,
  "Sim Card Number": "8935711001083427226",
  "Tracker": "Yes",
  "Latitude": 6.07255333333333,
  "Longitude": 1.03446333333333
 },
 {
  "Date": "15-Jul-24",
  "Site Number": 600630,
  "Site Name": "DODZE",
  "Serial Number": "80000213079722261047",
  "Tracker IMEI": 862311065569723,
  "Sim Card Number": "8935711001083427242",
  "Tracker": "Yes",
  "Latitude": 6.23277973333333,
  "Longitude": 0.999967666666667
 },
 {
  "Date": "15-Jul-24",
  "Site Number": 600632,
  "Site Name": "AKATSI",
  "Serial Number": "80000213079722262793",
  "Tracker IMEI": 862311065479212,
  "Sim Card Number": "8935711001083426830",
  "Tracker": "Yes",
  "Latitude": 6.12100928333333,
  "Longitude": 0.80907345
 },
 {
  "Date": "10-Jul-24",
  "Site Number": 600637,
  "Site Name": "SOGAKOPE",
  "Serial Number": "80000118139822253005",
  "Tracker IMEI": 862311065567651,
  "Sim Card Number": "8935711001083427424",
  "Tracker": "Yes",
  "Latitude": 6.0019291,
  "Longitude": 0.5980138
 },
 {
  "Date": "11-Jul-24",
  "Site Number": 600638,
  "Site Name": "AFLAO",
  "Serial Number": "80000103039820160054",
  "Tracker IMEI": 862311065514844,
  "Sim Card Number": "8935711001083427176",
  "Tracker": "Yes",
  "Latitude": 6.134185,
  "Longitude": 1.18248166666667
 },
 {
  "Date": "12-Jul-24",
  "Site Number": 601152,
  "Site Name": "ATORKOR",
  "Serial Number": "80000118139822253561",
  "Tracker IMEI": 862311065508424,
  "Sim Card Number": "8935711001083424637",
  "Tracker": "Yes",
  "Latitude": 5.775785,
  "Longitude": 0.8259867
 },
 {
  "Date": "09-Jul-24",
  "Site Number": 601041,
  "Site Name": "AKUSE",
  "Serial Number": "80000103039820140377",
  "Tracker IMEI": 862311065533554,
  "Sim Card Number": "8935711001083424512",
  "Tracker": "Yes",
  "Latitude": 6.0988121,
  "Longitude": 0.1128294
 },
 {
  "Date": "05-Jul-24",
  "Site Number": 600934,
  "Site Name": "PILA2PARAKU",
  "Serial Number": "80000118069820470326",
  "Tracker IMEI": 862311065542555,
  "Sim Card Number": "8935711001083423928",
  "Tracker": "Yes",
  "Latitude": 5.64923333333333,
  "Longitude": -0.229336666666667
 },
 {
  "Date": "05-Jul-24",
  "Site Number": 600902,
  "Site Name": "NIIBOI2",
  "Serial Number": "80000118099821411220",
  "Tracker IMEI": 862311065505099,
  "Sim Card Number": "8935711001083423795",
  "Tracker": "Yes",
  "Latitude": 5.6111783,
  "Longitude": -0.2493733
 },
 {
  "Date": "01-Jul-24",
  "Site Number": 600836,
  "Site Name": "AGYIRIGANOR",
  "Serial Number": "80000118059820380145",
  "Tracker IMEI": 862311065542472,
  "Sim Card Number": "8935711001083427614",
  "Tracker": "Yes",
  "Latitude": 5.65188166666667,
  "Longitude": -0.125218333333333
 },
 {
  "Date": "04-Jul-24",
  "Site Number": 601005,
  "Site Name": "BATSONA3",
  "Serial Number": "80000213079722260905",
  "Tracker IMEI": 862311065568493,
  "Sim Card Number": "8935711001083423902",
  "Tracker": "Yes",
  "Latitude": 5.62571302430639,
  "Longitude": -0.0892507879377892
 },
 {
  "Date": "01-Jul-24",
  "Site Number": 600849,
  "Site Name": "MADINA6",
  "Serial Number": "80000103039820170136",
  "Tracker IMEI": 862311065568154,
  "Sim Card Number": "8935711001083427127",
  "Tracker": "Yes",
  "Latitude": 5.66342833333333,
  "Longitude": -0.1618
 },
 {
  "Date": "27-Jun-24",
  "Site Number": 600858,
  "Site Name": "CANTONMENTS4",
  "Serial Number": "80000118079820480239",
  "Tracker IMEI": 862311065546226,
  "Sim Card Number": "8935711001083427457",
  "Tracker": "Yes",
  "Latitude": 5.5760033,
  "Longitude": -0.1791633
 },
 {
  "Date": "27-Jun-24",
  "Site Number": 600868,
  "Site Name": "LABONE2",
  "Serial Number": "80000118069820450509",
  "Tracker IMEI": 862311065519843,
  "Sim Card Number": "8935711001083427374",
  "Tracker": "Yes",
  "Latitude": 5.5704082,
  "Longitude": -0.1772435
 },
 {
  "Date": "15-May-24",
  "Site Number": 600875,
  "Site Name": "ACHIMOTASTN",
  "Serial Number": "80000118109721501196",
  "Tracker IMEI": 862311065556365,
  "Sim Card Number": "8935711001083424348",
  "Tracker": "Yes",
  "Latitude": 5.618565,
  "Longitude": -0.230196666666667
 },
 {
  "Date": "24-Apr-24",
  "Site Number": 600876,
  "Site Name": "TAIFA",
  "Serial Number": "80000118139722282313",
  "Tracker IMEI": 862311065531632,
  "Sim Card Number": "8935711001083427440",
  "Tracker": "Yes"
 },
 {
  "Date": "09-May-24",
  "Site Number": 600882,
  "Site Name": "OFANKOR4",
  "Serial Number": "80000118139822253530",
  "Tracker IMEI": 862311064209818,
  "Sim Card Number": "8935711001083424173",
  "Tracker": "Yes",
  "Latitude": 5.6627198895397,
  "Longitude": -0.297531387596982
 },
 {
  "Date": "22-Apr-24",
  "Site Number": 600886,
  "Site Name": "ASHONGMAN3",
  "Serial Number": "80000118079820480188",
  "Tracker IMEI": 862311065568550,
  "Sim Card Number": "8935711001083423829",
  "Tracker": "Yes",
  "Latitude": 5.697285,
  "Longitude": -0.231086666666667
 },
 {
  "Date": "01-Jul-24",
  "Site Number": 601020,
  "Site Name": "AGYIRIGANO3",
  "Serial Number": "80000118099821411273",
  "Tracker IMEI": 862311065509257,
  "Sim Card Number": "8935711001083392214",
  "Tracker": "Yes",
  "Latitude": 5.6505571,
  "Longitude": -0.1393039
 },
 {
  "Date": "11-Jun-24",
  "Site Number": 600926,
  "Site Name": "NBORTIANOR",
  "Serial Number": "80000118069820470147",
  "Tracker IMEI": 862311065504779,
  "Sim Card Number": "8935711001083427416",
  "Tracker": "Yes",
  "Latitude": 5.5681023,
  "Longitude": -0.2410159
 },
 {
  "Date": "11-Jun-24",
  "Site Number": 600928,
  "Site Name": "NBORTIANO2",
  "Serial Number": "80000213129723370027",
  "Tracker IMEI": 862311065565770,
  "Sim Card Number": "8935711001083424363",
  "Tracker": "Yes",
  "Latitude": 5.52224,
  "Longitude": -0.34829
 },
 {
  "Date": "07-Jun-24",
  "Site Number": 600929,
  "Site Name": "GBAWE5",
  "Serial Number": "80000103039820160534",
  "Tracker IMEI": 862311065572636,
  "Sim Card Number": "8935711001083424611",
  "Tracker": "Yes",
  "Latitude": 5.58722833333333,
  "Longitude": -0.313663333333333
 },
 {
  "Date": "05-Jun-24",
  "Site Number": 601235,
  "Site Name": "KUNTUNSE",
  "Serial Number": "81000020029818430011",
  "Tracker IMEI": 862311065512095,
  "Sim Card Number": "8935711001083424140",
  "Tracker": "Yes",
  "Latitude": 5.73570347601445,
  "Longitude": -0.31196837359165
 },
 {
  "Date": "26-Apr-24",
  "Site Number": 601176,
  "Site Name": "MEDIE",
  "Serial Number": "80000118079820480282",
  "Tracker IMEI": 862311065499657,
  "Sim Card Number": "8935711001083424223",
  "Tracker": "Yes",
  "Latitude": 5.76084666080456,
  "Longitude": -0.319814712018768
 },
 {
  "Date": "11-Jul-24",
  "Site Number": 601323,
  "Site Name": "AGBOZUME2",
  "Serial Number": "80000103039820130183",
  "Tracker IMEI": 862311064195769,
  "Sim Card Number": "8935711001083427606",
  "Tracker": "Yes",
  "Latitude": 6.080665,
  "Longitude": 1.05098166666667
 },
 {
  "Date": "06-Jun-24",
  "Site Number": 601409,
  "Site Name": "ANYALASTOP",
  "Serial Number": "80000118139822253507",
  "Tracker IMEI": 862311065556233,
  "Sim Card Number": "8935711001083424116",
  "Tracker": "Yes",
  "Latitude": 5.5931927,
  "Longitude": -0.2986622
 },
 {
  "Date": "15-Jul-24",
  "Site Number": 601518,
  "Site Name": "PENYI",
  "Serial Number": "80000103039820140012",
  "Tracker IMEI": 862311065500546,
  "Sim Card Number": "8935711001083423985",
  "Tracker": "Yes",
  "Latitude": 6.2234403,
  "Longitude": 1.03430293333333
 },
 {
  "Date": "01-Jul-24",
  "Site Number": 601575,
  "Site Name": "AMRAHA",
  "Serial Number": "80000118139722282015",
  "Tracker IMEI": 862311065498022,
  "Sim Card Number": "8935711001083423894",
  "Tracker": "Yes",
  "Latitude": 5.7657788,
  "Longitude": -0.1399633
 },
 {
  "Date": "15-Jul-24",
  "Site Number": 601585,
  "Site Name": "KOFRIDUA8",
  "Serial Number": "80000103029820080030",
  "Tracker IMEI": 862311065524462,
  "Sim Card Number": "8935711001083425386",
  "Tracker": "Yes",
  "Latitude": 6.0691913,
  "Longitude": -0.2399555
 },
 {
  "Date": "11-Jul-24",
  "Site Number": 601637,
  "Site Name": "AVOEME2",
  "Serial Number": "80000118139822253285",
  "Tracker IMEI": 862311065520114,
  "Sim Card Number": "8935711001083424157",
  "Tracker": "Yes",
  "Latitude": 6.10679166666667,
  "Longitude": 1.155955
 },
 {
  "Date": "17-Jul-24",
  "Site Number": 601668,
  "Site Name": "KOFORIDUA10",
  "Serial Number": "81000020029819080026",
  "Tracker IMEI": 862311065495226,
  "Sim Card Number": "8935711001083430071",
  "Tracker": "Yes",
  "Latitude": 6.0808161,
  "Longitude": -0.2802029
 },
 {
  "Date": "10-Jul-24",
  "Site Number": 601851,
  "Site Name": "SOMANYA3",
  "Serial Number": "80000103029820080141",
  "Tracker IMEI": 862311066058270,
  "Sim Card Number": "8935711001083426780",
  "Tracker": "Yes",
  "Latitude": 6.1095167,
  "Longitude": -0.016255
 },
 {
  "Date": "10-Jul-24",
  "Site Number": 601862,
  "Site Name": "SOMANYA4",
  "Serial Number": "80000103039820120126",
  "Tracker IMEI": 862311065522508,
  "Sim Card Number": "8935711001083426483",
  "Tracker": "Yes",
  "Latitude": 6.1279,
  "Longitude": -0.015055
 },
 {
  "Date": "12-Jul-24",
  "Site Number": 601891,
  "Site Name": "AGBLEDOME",
  "Serial Number": "80000118139822253569",
  "Tracker IMEI": 862311066063213,
  "Sim Card Number": "8935711001083426673",
  "Tracker": "Yes",
  "Latitude": 5.7789546,
  "Longitude": 0.7351084
 },
 {
  "Date": "12-Jul-24",
  "Site Number": 602039,
  "Site Name": "KOFORIDUA13",
  "Serial Number": "80000103039820120170",
  "Tracker IMEI": 862311065504647,
  "Sim Card Number": "8935711001083425568",
  "Tracker": "Yes",
  "Latitude": 6.0876196,
  "Longitude": -0.2595136
 },
 {
  "Date": "11-Jul-24",
  "Site Number": 602048,
  "Site Name": "NOGOKPO",
  "Serial Number": "80000118139822253321",
  "Tracker IMEI": 862311065530428,
  "Sim Card Number": "8935711001083426558",
  "Tracker": "Yes",
  "Latitude": 6.09186666666667,
  "Longitude": 1.07633833333333
 },
 {
  "Date": "12-Jul-24",
  "Site Number": 602049,
  "Site Name": "AFIADYIGBA2",
  "Serial Number": "80000118139822253290",
  "Tracker IMEI": 862311065569558,
  "Sim Card Number": "8935711001083427481",
  "Tracker": "Yes",
  "Latitude": 6.0278933,
  "Longitude": 0.987325
 },
 {
  "Date": "25-Apr-24",
  "Site Number": 602113,
  "Site Name": "HAATSO2",
  "Serial Number": "8000011809982141102",
  "Tracker IMEI": 862311064195959,
  "Sim Card Number": "8935711001083424074",
  "Tracker": "Yes",
  "Latitude": 5.67581333333333,
  "Longitude": -0.207116666666667
 },
 {
  "Date": "11-Jul-24",
  "Site Number": 602302,
  "Site Name": "ABURI4",
  "Serial Number": "80000103039820140391",
  "Tracker IMEI": 862311065484071,
  "Sim Card Number": "8935711001083430642",
  "Tracker": "Yes",
  "Latitude": 5.8197117,
  "Longitude": -0.2009867
 },
 {
  "Date": "27-Jun-24",
  "Site Number": 602315,
  "Site Name": "LABADISS",
  "Serial Number": "80000103039820130011",
  "Tracker IMEI": 862311065506311,
  "Sim Card Number": "8935711001083427309",
  "Tracker": "Yes",
  "Latitude": 5.5634557,
  "Longitude": -0.1583409
 },
 {
  "Date": "24-Apr-24",
  "Site Number": 602381,
  "Site Name": "KWABENYA5",
  "Serial Number": "80000103039820160384",
  "Tracker IMEI": 862311065576488,
  "Sim Card Number": "8935711001083427143",
  "Tracker": "Yes",
  "Latitude": 5.70126394478647,
  "Longitude": -0.258274518214363
 },
 {
  "Date": "14-May-24",
  "Site Number": 602388,
  "Site Name": "ACHIMOTA5",
  "Serial Number": "80000213129723370158",
  "Tracker IMEI": 862311065540930,
  "Sim Card Number": "8935711001083424645",
  "Tracker": "Yes",
  "Latitude": 5.6169856,
  "Longitude": -0.2236883
 },
 {
  "Date": "01-Jul-24",
  "Site Number": 602417,
  "Site Name": "AGYRGNORSS",
  "Serial Number": "80000118139822253461",
  "Tracker IMEI": 862311065552331,
  "Sim Card Number": "8935711001083427572",
  "Tracker": "Yes",
  "Latitude": 5.6547086,
  "Longitude": -0.1303108
 },
 {
  "Date": "17-Jul-24",
  "Site Number": 602439,
  "Site Name": "KUKURNTML2",
  "Serial Number": "80000035019819240056",
  "Tracker IMEI": 862311065501387,
  "Sim Card Number": "8935711001083430394",
  "Tracker": "Yes",
  "Latitude": 6.1975832,
  "Longitude": -0.3639883
 },
 {
  "Date": "15-Jul-24",
  "Site Number": 602536,
  "Site Name": "OKRASE",
  "Serial Number": "80000118069820470362",
  "Tracker IMEI": 862311065485656,
  "Sim Card Number": "8935711001083430501",
  "Tracker": "Yes",
  "Latitude": 6.0435193,
  "Longitude": -0.2597346
 },
 {
  "Date": "15-Jul-24",
  "Site Number": 602551,
  "Site Name": "DODZE2",
  "Serial Number": "80000103039820130176",
  "Tracker IMEI": 862311065491787,
  "Sim Card Number": "8935711001083426822",
  "Tracker": "Yes",
  "Latitude": 6.24129363333333,
  "Longitude": 1.00139656666667
 },
 {
  "Date": "04-Jul-24",
  "Site Number": 602631,
  "Site Name": "RIZJUNCTION2",
  "Serial Number": "80000103039820140435",
  "Tracker IMEI": 862311066078682,
  "Sim Card Number": "8935711001083426699",
  "Tracker": "Yes",
  "Latitude": 5.68682166666667,
  "Longitude": -0.171071666666667
 },
 {
  "Date": "14-Jun-24",
  "Site Number": 602727,
  "Site Name": "MATAHEKONEWJERUSALEM",
  "Serial Number": "80000118099821421470",
  "Tracker IMEI": 862311065514539,
  "Sim Card Number": "8935711001083427200",
  "Tracker": "Yes",
  "Latitude": 5.7864145,
  "Longitude": -0.0173173
 },
 {
  "Date": "10-Jun-24",
  "Site Number": 602730,
  "Site Name": "GBAWETOPBASE",
  "Serial Number": "80000213129723370018",
  "Tracker IMEI": 862311065519454,
  "Sim Card Number": "8935711001083424306",
  "Tracker": "Yes",
  "Latitude": 5.56843666666667,
  "Longitude": -0.308961666666667
 },
 {
  "Date": "16-May-24",
  "Site Number": 603491,
  "Site Name": "KASOA5",
  "Serial Number": "80000213079722260764",
  "Tracker IMEI": 862311065490524,
  "Sim Card Number": "8935711001083424041",
  "Tracker": "Yes",
  "Latitude": 5.58391,
  "Longitude": -0.4495499
 },
 {
  "Date": "10-Jun-24",
  "Site Number": 603709,
  "Site Name": "MCCARTHYROYALPALM",
  "Serial Number": "80000213079722261079",
  "Tracker IMEI": 862311065504522,
  "Sim Card Number": "8935711001083423654",
  "Tracker": "Yes",
  "Latitude": 5.56110166666667,
  "Longitude": -0.29539
 },
 {
  "Date": "01-Jul-24",
  "Site Number": 604270,
  "Site Name": "OYARIFA",
  "Serial Number": "80000118049820280051",
  "Tracker IMEI": 862311065517755,
  "Sim Card Number": "8935711001083423910",
  "Tracker": "Yes",
  "Latitude": 5.7457254,
  "Longitude": -0.1766628
 },
 {
  "Date": "10-Jul-24",
  "Site Number": 604297,
  "Site Name": "SOGAKOFE",
  "Serial Number": "80000118079820480176",
  "Tracker IMEI": 862311065497628,
  "Sim Card Number": "8935711001083424413",
  "Tracker": "Yes",
  "Latitude": 6.00275588,
  "Longitude": 0.60791097
 },
 {
  "Date": "07-Jun-24",
  "Site Number": 604325,
  "Site Name": "MENDSKROM",
  "Serial Number": "80000118109721500859",
  "Tracker IMEI": 862311065556175,
  "Sim Card Number": "8935711001083424090",
  "Tracker": "Yes",
  "Latitude": 5.5267883,
  "Longitude": -0.3498583
 },
 {
  "Date": "01-Jul-24",
  "Site Number": 604574,
  "Site Name": "VALLEYVIEWUNI",
  "Serial Number": "80000213129723370078",
  "Tracker IMEI": 862311065567065,
  "Sim Card Number": "8935711001083427317",
  "Tracker": "Yes",
  "Latitude": 5.795086,
  "Longitude": -0.1232766
 },
 {
  "Date": "13-Jun-24",
  "Site Number": 604609,
  "Site Name": "SOWUTUOMANTOEKU",
  "Serial Number": "80000213079722262926",
  "Tracker IMEI": 862311065486878,
  "Sim Card Number": "8935711001083427275",
  "Tracker": "Yes",
  "Latitude": 5.619145,
  "Longitude": -0.2909233
 },
 {
  "Date": "13-Jun-24",
  "Site Number": 604827,
  "Site Name": "SOWUTUOMJUNCTION",
  "Serial Number": "80000118109721493659",
  "Tracker IMEI": 862311065555995,
  "Sim Card Number": "8935711001083424108",
  "Tracker": "Yes",
  "Latitude": 5.64535296175849,
  "Longitude": -0.292792215791205
 },
 {
  "Date": "25-Apr-24",
  "Site Number": 604835,
  "Site Name": "EASTLEGON",
  "Serial Number": "80000118039820270090",
  "Tracker IMEI": 862311065566844,
  "Sim Card Number": "8935711001083427218",
  "Tracker": "Yes",
  "Latitude": 5.6364694,
  "Longitude": -0.1699132
 },
 {
  "Date": "12-Jul-24",
  "Site Number": 612832,
  "Site Name": "KOFIADWESO2",
  "Serial Number": "80000213129723370115",
  "Tracker IMEI": 862311064232075,
  "Sim Card Number": "8935711001083425535",
  "Tracker": "Yes",
  "Latitude": 6.0797554,
  "Longitude": -0.2459934
 },
 {
  "Date": "11-Jun-24",
  "Site Number": 612953,
  "Site Name": "BROADCASTING",
  "Serial Number": "80000118099821421505",
  "Tracker IMEI": 862311065555623,
  "Sim Card Number": "8935711001083424314",
  "Tracker": "Yes",
  "Latitude": 5.5447369,
  "Longitude": -0.3614701
 },
 {
  "Date": "10-Jul-24",
  "Site Number": 613125,
  "Site Name": "SOMANYAROYALHOTEL",
  "Serial Number": "80000118079821180159",
  "Tracker IMEI": 862311065493460,
  "Sim Card Number": "8935711001083426681",
  "Tracker": "Yes",
  "Latitude": 6.0753013,
  "Longitude": -0.0153151
 },
 {
  "Date": "01-Jul-24",
  "Site Number": 613219,
  "Site Name": "OYIBIBURNA",
  "Serial Number": "80000118099821421497",
  "Tracker IMEI": 862311065553552,
  "Sim Card Number": "8935711001083427135",
  "Tracker": "Yes",
  "Latitude": 5.7929072,
  "Longitude": -0.1019677
 },
 {
  "Date": "24-Apr-24",
  "Site Number": 613228,
  "Site Name": "DOMEEVERGREEN",
  "Serial Number": "80000118099821422024",
  "Tracker IMEI": 862311065516989,
  "Sim Card Number": "8935711001083427077",
  "Tracker": "Yes",
  "Latitude": 5.65756,
  "Longitude": -0.244008333333333
 },
 {
  "Date": "22-Apr-24",
  "Site Number": 613258,
  "Site Name": "ASHONGMANEST",
  "Serial Number": "80000118099821421502",
  "Tracker IMEI": 862311065510644,
  "Sim Card Number": "8935711001083427168",
  "Tracker": "Yes"
 },
 {
  "Date": "26-Jun-24",
  "Site Number": 613301,
  "Site Name": "OSU2",
  "Serial Number": "80000118139722281857",
  "Tracker IMEI": 862311065538645,
  "Sim Card Number": "8935711001083427408",
  "Tracker": "Yes",
  "Latitude": 5.553183,
  "Longitude": -0.1789586
 },
 {
  "Date": "11-Jul-24",
  "Site Number": 613313,
  "Site Name": "ANAKAZOSCH",
  "Serial Number": "80000118109721493640",
  "Tracker IMEI": 862311065542498,
  "Sim Card Number": "8935711001083425436",
  "Tracker": "Yes",
  "Latitude": 5.900428,
  "Longitude": -0.1571734
 },
 {
  "Date": "12-Jul-24",
  "Site Number": 601960,
  "Site Name": "NSUKWAO",
  "Serial Number": "80000103037720030324",
  "Tracker IMEI": 862311065566190,
  "Sim Card Number": "8935711001083430592",
  "Tracker": "Yes"
 },
 {
  "Date": "11-Jul-24",
  "Site Number": 601217,
  "Site Name": "KLIKOR",
  "Serial Number": "80000103039820120218",
  "Tracker IMEI": 862311065540336,
  "Sim Card Number": "8935711001083427432",
  "Tracker": "Yes"
 },
 {
  "Date": "11-Jul-24",
  "Site Number": 600670,
  "Site Name": "LARTEH",
  "Serial Number": "80000269019819340180",
  "Tracker IMEI": 862311065529727,
  "Sim Card Number": "8935711001083430485",
  "Tracker": "Yes"
 },
 {
  "Date": "10-Jul-24",
  "Site Number": 601886,
  "Site Name": "KETA4",
  "Serial Number": "80000269019819260316",
  "Tracker IMEI": 862311065532572,
  "Sim Card Number": "8935711001083427192",
  "Tracker": "Yes"
 },
 {
  "Date": "10-Jul-24",
  "Site Number": 602399,
  "Site Name": "KPOTAME",
  "Serial Number": "80000103039820160019",
  "Tracker IMEI": 862311065571984,
  "Sim Card Number": "8935711001083427499",
  "Tracker": "Yes"
 },
 {
  "Date": "04-Jul-24",
  "Site Number": 600412,
  "Site Name": "BATSWONA",
  "Serial Number": "80000103039820140407",
  "Tracker IMEI": 862311065487264,
  "Sim Card Number": "8935711001083427184",
  "Tracker": "Yes"
 },
 {
  "Date": "28-Jun-24",
  "Site Number": 600380,
  "Site Name": "NUNGUA1",
  "Serial Number": "80000213079722260917",
  "Tracker IMEI": 862311065555607,
  "Sim Card Number": "8935711001083392065",
  "Tracker": "Yes"
 },
 {
  "Date": "27-Jun-24",
  "Site Number": 600037,
  "Site Name": "LABONE",
  "Serial Number": "80000213129723370036",
  "Tracker IMEI": 862311065542001,
  "Sim Card Number": "8935711001083427556",
  "Tracker": "Yes"
 },
 {
  "Date": "12-Jun-24",
  "Site Number": 600909,
  "Site Name": "SAKAMAN",
  "Serial Number": "80000118109721492860",
  "Tracker IMEI": 862311065554238,
  "Sim Card Number": "8935711001083427119",
  "Tracker": "Yes"
 },
 {
  "Date": "12-Jun-24",
  "Site Number": 600978,
  "Site Name": "AWOSHIE2",
  "Serial Number": "80000118099821411194",
  "Tracker IMEI": 862311065538397,
  "Sim Card Number": "8935711001083427598",
  "Tracker": "Yes"
 }
]
}