{
"Sheet1":[
 {
  "Site ID Number": 600008,
  "Latitude": 5.5663486,
  "Longitude": -0.2115747,
  "Site Name": "ADABRAKA2(NIAGARAHOTEL)",
  "Ghana Sites.Tracker IMEI": 0,
  "Installation Status": "Not Installed",
  "Check": "No_Tracker"
 },
 {
  "Site ID Number": 600009,
  "Latitude": 5.5521427,
  "Longitude": -0.2091914,
  "Site Name": "TUDU2",
  "Ghana Sites.Tracker IMEI": 0,
  "Installation Status": "Not Installed",
  "Check": "No_Tracker"
 },
 {
  "Site ID Number": 600010,
  "Latitude": 5.5480165,
  "Longitude": -0.2096553,
  "Site Name": "TUDU1",
  "Ghana Sites.Tracker IMEI": 0,
  "Installation Status": "Not Installed",
  "Check": "No_Tracker"
 },
 {
  "Site ID Number": 600012,
  "Latitude": 5.561532,
  "Longitude": -0.1809441,
  "Site Name": "CASTLENODG",
  "Ghana Sites.Tracker IMEI": 0,
  "Installation Status": "Not Installed",
  "Check": "No_Tracker"
 },
 {
  "Site ID Number": 600014,
  "Latitude": 5.553113,
  "Longitude": -0.2008789,
  "Site Name": "ACCCENTRAL",
  "Ghana Sites.Tracker IMEI": 0,
  "Installation Status": "Not Installed",
  "Check": "No_Tracker"
 },
 {
  "Site ID Number": 600019,
  "Latitude": 5.5678572,
  "Longitude": -0.1885108,
  "Site Name": "RINGWAY",
  "Ghana Sites.Tracker IMEI": 0,
  "Installation Status": "Not Installed",
  "Check": "No_Tracker"
 },
 {
  "Site ID Number": 600020,
  "Latitude": 5.56763666666667,
  "Longitude": -0.198613333333333,
  "Site Name": "SUNRISE",
  "Ghana Sites.Tracker IMEI": 0,
  "Installation Status": "Not Installed",
  "Check": "No_Tracker"
 },
 {
  "Site ID Number": 600023,
  "Latitude": 5.5662806,
  "Longitude": -0.2379386,
  "Site Name": "KANMARKET",
  "Ghana Sites.Tracker IMEI": 0,
  "Installation Status": "Not Installed",
  "Check": "No_Tracker"
 },
 {
  "Site ID Number": 600024,
  "Latitude": 5.584845,
  "Longitude": -0.233116666666667,
  "Site Name": "KANESHIE",
  "Ghana Sites.Tracker IMEI": 0,
  "Installation Status": "Not Installed",
  "Check": "No_Tracker"
 },
 {
  "Site ID Number": 600025,
  "Latitude": 5.58688022236335,
  "Longitude": -0.242550749951654,
  "Site Name": "BUBUASHIE",
  "Ghana Sites.Tracker IMEI": 0,
  "Installation Status": "Not Installed",
  "Check": "No_Tracker"
 },
 {
  "Site ID Number": 600027,
  "Latitude": 5.5946297,
  "Longitude": -0.2172739,
  "Site Name": "ALAJO",
  "Ghana Sites.Tracker IMEI": 0,
  "Installation Status": "Not Installed",
  "Check": "No_Tracker"
 },
 {
  "Site ID Number": 600029,
  "Latitude": 5.6107323,
  "Longitude": -0.2202062,
  "Site Name": "ABELEMKPE1",
  "Ghana Sites.Tracker IMEI": 0,
  "Installation Status": "Not Installed",
  "Check": "No_Tracker"
 },
 {
  "Site ID Number": 600031,
  "Latitude": 5.60607333333333,
  "Longitude": -0.248991666666667,
  "Site Name": "LAPAZ1",
  "Ghana Sites.Tracker IMEI": 0,
  "Installation Status": "Not Installed",
  "Check": "No_Tracker"
 },
 {
  "Site ID Number": 600032,
  "Latitude": 5.62429833333333,
  "Longitude": -0.23535,
  "Site Name": "NEWACHIMOTA",
  "Ghana Sites.Tracker IMEI": 0,
  "Installation Status": "Not Installed",
  "Check": "No_Tracker"
 },
 {
  "Site ID Number": 600034,
  "Latitude": 5.66966666666667,
  "Longitude": -0.240188333333333,
  "Site Name": "KWABENYA",
  "Ghana Sites.Tracker IMEI": 0,
  "Installation Status": "Not Installed",
  "Check": "No_Tracker"
 },
 {
  "Site ID Number": 600040,
  "Latitude": 5.56988,
  "Longitude": -0.1484417,
  "Site Name": "TRADEFAIR",
  "Ghana Sites.Tracker IMEI": 0,
  "Installation Status": "Not Installed",
  "Check": "No_Tracker"
 },
 {
  "Site ID Number": 600048,
  "Latitude": 5.59919166666667,
  "Longitude": -0.179583333333333,
  "Site Name": "OPEIBEANODG",
  "Ghana Sites.Tracker IMEI": 0,
  "Installation Status": "Not Installed",
  "Check": "No_Tracker"
 },
 {
  "Site ID Number": 600049,
  "Latitude": 5.6028791,
  "Longitude": -0.2008755,
  "Site Name": "SALEMSHOUSE",
  "Ghana Sites.Tracker IMEI": 0,
  "Installation Status": "Not Installed",
  "Check": "No_Tracker"
 },
 {
  "Site ID Number": 600051,
  "Latitude": 5.6150403,
  "Longitude": -0.1961798,
  "Site Name": "DZORWULU",
  "Ghana Sites.Tracker IMEI": 0,
  "Installation Status": "Not Installed",
  "Check": "No_Tracker"
 },
 {
  "Site ID Number": 600058,
  "Latitude": 5.67064666666667,
  "Longitude": -0.165116666666667,
  "Site Name": "MADINA3",
  "Ghana Sites.Tracker IMEI": 0,
  "Installation Status": "Not Installed",
  "Check": "No_Tracker"
 },
 {
  "Site ID Number": 600059,
  "Latitude": 5.6086714,
  "Longitude": -0.1888724,
  "Site Name": "AIRPORT2",
  "Ghana Sites.Tracker IMEI": 0,
  "Installation Status": "Not Installed",
  "Check": "No_Tracker"
 },
 {
  "Site ID Number": 600060,
  "Latitude": 5.5452493,
  "Longitude": -0.2117131,
  "Site Name": "CHILDHOSPL",
  "Ghana Sites.Tracker IMEI": 0,
  "Installation Status": "Not Installed",
  "Check": "No_Tracker"
 },
 {
  "Site ID Number": 600063,
  "Latitude": 5.58197,
  "Longitude": -0.105938333333333,
  "Site Name": "TRADEFAIR2",
  "Ghana Sites.Tracker IMEI": 0,
  "Installation Status": "Not Installed",
  "Check": "No_Tracker"
 },
 {
  "Site ID Number": 600067,
  "Latitude": 5.5813319911897,
  "Longitude": -0.264793587146781,
  "Site Name": "OODORKOR2",
  "Ghana Sites.Tracker IMEI": 0,
  "Installation Status": "Not Installed",
  "Check": "No_Tracker"
 },
 {
  "Site ID Number": 600070,
  "Latitude": 5.56141699284126,
  "Longitude": -0.268925819011899,
  "Site Name": "ODORKOR1",
  "Ghana Sites.Tracker IMEI": 0,
  "Installation Status": "Not Installed",
  "Check": "No_Tracker"
 },
 {
  "Site ID Number": 600075,
  "Latitude": 5.5368675,
  "Longitude": -0.2661152,
  "Site Name": "DANSOMAN2",
  "Ghana Sites.Tracker IMEI": 0,
  "Installation Status": "Not Installed",
  "Check": "No_Tracker"
 },
 {
  "Site ID Number": 600076,
  "Latitude": 5.56944706524294,
  "Longitude": -0.254515486746154,
  "Site Name": "DANSOMAN3",
  "Ghana Sites.Tracker IMEI": 0,
  "Installation Status": "Not Installed",
  "Check": "No_Tracker"
 },
 {
  "Site ID Number": 600077,
  "Latitude": 5.5945367,
  "Longitude": -0.1898617,
  "Site Name": "CSIR",
  "Ghana Sites.Tracker IMEI": 0,
  "Installation Status": "Not Installed",
  "Check": "No_Tracker"
 },
 {
  "Site ID Number": 600078,
  "Latitude": 5.58979670117023,
  "Longitude": -0.26016505565471,
  "Site Name": "ODORKOR3",
  "Ghana Sites.Tracker IMEI": 0,
  "Installation Status": "Not Installed",
  "Check": "No_Tracker"
 },
 {
  "Site ID Number": 600080,
  "Latitude": 5.5894309,
  "Longitude": -0.2816446,
  "Site Name": "ODORGONO",
  "Ghana Sites.Tracker IMEI": 0,
  "Installation Status": "Not Installed",
  "Check": "No_Tracker"
 },
 {
  "Site ID Number": 600084,
  "Latitude": 5.60225333333333,
  "Longitude": -0.315633333333333,
  "Site Name": "GBAWEHILL",
  "Ghana Sites.Tracker IMEI": 0,
  "Installation Status": "Not Installed",
  "Check": "No_Tracker"
 },
 {
  "Site ID Number": 600092,
  "Latitude": 5.59872454930407,
  "Longitude": -0.252140562346419,
  "Site Name": "FADAMA",
  "Ghana Sites.Tracker IMEI": 0,
  "Installation Status": "Not Installed",
  "Check": "No_Tracker"
 },
 {
  "Site ID Number": 600093,
  "Latitude": 5.60825333333333,
  "Longitude": -0.260278333333333,
  "Site Name": "TABORA",
  "Ghana Sites.Tracker IMEI": 0,
  "Installation Status": "Not Installed",
  "Check": "No_Tracker"
 },
 {
  "Site ID Number": 600094,
  "Latitude": 5.597435,
  "Longitude": -0.1995132,
  "Site Name": "PIGFARM",
  "Ghana Sites.Tracker IMEI": 0,
  "Installation Status": "Not Installed",
  "Check": "No_Tracker"
 },
 {
  "Site ID Number": 600095,
  "Latitude": 5.6629205,
  "Longitude": -0.2068211,
  "Site Name": "KESSIEH",
  "Ghana Sites.Tracker IMEI": 0,
  "Installation Status": "Not Installed",
  "Check": "No_Tracker"
 },
 {
  "Site ID Number": 600096,
  "Latitude": 5.52399,
  "Longitude": -0.3486433,
  "Site Name": "SAMPAVALLY",
  "Ghana Sites.Tracker IMEI": 0,
  "Installation Status": "Not Installed",
  "Check": "No_Tracker"
 },
 {
  "Site ID Number": 600097,
  "Latitude": 5.56121666666667,
  "Longitude": -0.254465,
  "Site Name": "DANSOMAN4",
  "Ghana Sites.Tracker IMEI": 0,
  "Installation Status": "Not Installed",
  "Check": "No_Tracker"
 },
 {
  "Site ID Number": 600098,
  "Latitude": 5.6120876,
  "Longitude": -0.2024214,
  "Site Name": "DZORWULU2",
  "Ghana Sites.Tracker IMEI": 0,
  "Installation Status": "Not Installed",
  "Check": "No_Tracker"
 },
 {
  "Site ID Number": 600099,
  "Latitude": 5.5913313,
  "Longitude": -0.204058,
  "Site Name": "KOTOBABI",
  "Ghana Sites.Tracker IMEI": 0,
  "Installation Status": "Not Installed",
  "Check": "No_Tracker"
 },
 {
  "Site ID Number": 600100,
  "Latitude": 5.5675595,
  "Longitude": -0.1641868,
  "Site Name": "APAAPA",
  "Ghana Sites.Tracker IMEI": 0,
  "Installation Status": "Not Installed",
  "Check": "No_Tracker"
 },
 {
  "Site ID Number": 600104,
  "Latitude": 5.567605,
  "Longitude": -0.221813333333333,
  "Site Name": "GWSCLS",
  "Ghana Sites.Tracker IMEI": 0,
  "Installation Status": "Not Installed",
  "Check": "No_Tracker"
 },
 {
  "Site ID Number": 600106,
  "Latitude": 5.554105,
  "Longitude": -0.266506666666667,
  "Site Name": "DANSAHARA",
  "Ghana Sites.Tracker IMEI": 0,
  "Installation Status": "Not Installed",
  "Check": "No_Tracker"
 },
 {
  "Site ID Number": 600107,
  "Latitude": 5.54360666666667,
  "Longitude": -0.242828333333333,
  "Site Name": "LATERBIOKOSHIE",
  "Ghana Sites.Tracker IMEI": 0,
  "Installation Status": "Not Installed",
  "Check": "No_Tracker"
 },
 {
  "Site ID Number": 600109,
  "Latitude": 5.576415,
  "Longitude": -0.1992783,
  "Site Name": "NIMARABOUT",
  "Ghana Sites.Tracker IMEI": 0,
  "Installation Status": "Not Installed",
  "Check": "No_Tracker"
 },
 {
  "Site ID Number": 600110,
  "Latitude": 5.5778387,
  "Longitude": -0.2370882,
  "Site Name": "AGNESSDAY",
  "Ghana Sites.Tracker IMEI": 0,
  "Installation Status": "Not Installed",
  "Check": "No_Tracker"
 },
 {
  "Site ID Number": 600111,
  "Latitude": 5.5726,
  "Longitude": -0.2308683,
  "Site Name": "MOTHERSINN",
  "Ghana Sites.Tracker IMEI": 0,
  "Installation Status": "Not Installed",
  "Check": "No_Tracker"
 },
 {
  "Site ID Number": 600116,
  "Latitude": 5.5387133,
  "Longitude": -0.21298,
  "Site Name": "PALLADIUM1",
  "Ghana Sites.Tracker IMEI": 0,
  "Installation Status": "Not Installed",
  "Check": "No_Tracker"
 },
 {
  "Site ID Number": 600118,
  "Latitude": 5.54830666666667,
  "Longitude": -0.212888333333333,
  "Site Name": "GEOWAS",
  "Ghana Sites.Tracker IMEI": 0,
  "Installation Status": "Not Installed",
  "Check": "No_Tracker"
 },
 {
  "Site ID Number": 600119,
  "Latitude": 5.58086181032152,
  "Longitude": -0.248881773846241,
  "Site Name": "BUBUASHI4",
  "Ghana Sites.Tracker IMEI": 0,
  "Installation Status": "Not Installed",
  "Check": "No_Tracker"
 },
 {
  "Site ID Number": 600120,
  "Latitude": 5.55393666666667,
  "Longitude": -0.18739,
  "Site Name": "KINGDOMBKS",
  "Ghana Sites.Tracker IMEI": 0,
  "Installation Status": "Not Installed",
  "Check": "No_Tracker"
 },
 {
  "Site ID Number": 600123,
  "Latitude": 5.67444543,
  "Longitude": -0.17730805,
  "Site Name": "ATOMIC",
  "Ghana Sites.Tracker IMEI": 0,
  "Installation Status": "Not Installed",
  "Check": "No_Tracker"
 },
 {
  "Site ID Number": 600124,
  "Latitude": 5.6857557,
  "Longitude": -0.1623557,
  "Site Name": "MADINA2",
  "Ghana Sites.Tracker IMEI": 0,
  "Installation Status": "Not Installed",
  "Check": "No_Tracker"
 },
 {
  "Site ID Number": 600125,
  "Latitude": 5.7112101,
  "Longitude": -0.1708012,
  "Site Name": "ADENTA1",
  "Ghana Sites.Tracker IMEI": 0,
  "Installation Status": "Not Installed",
  "Check": "No_Tracker"
 },
 {
  "Site ID Number": 600127,
  "Latitude": 5.7122054,
  "Longitude": -0.1393389,
  "Site Name": "ADENTA4",
  "Ghana Sites.Tracker IMEI": 0,
  "Installation Status": "Not Installed",
  "Check": "No_Tracker"
 },
 {
  "Site ID Number": 600129,
  "Latitude": 5.53546666666667,
  "Longitude": -0.247713333333333,
  "Site Name": "MAMPROBI",
  "Ghana Sites.Tracker IMEI": 0,
  "Installation Status": "Not Installed",
  "Check": "No_Tracker"
 },
 {
  "Site ID Number": 600133,
  "Latitude": 5.56064333333333,
  "Longitude": -0.236045,
  "Site Name": "ABOSIOKAI",
  "Ghana Sites.Tracker IMEI": 0,
  "Installation Status": "Not Installed",
  "Check": "No_Tracker"
 },
 {
  "Site ID Number": 600138,
  "Latitude": 5.65001333333333,
  "Longitude": -0.211261666666667,
  "Site Name": "WESTLEGON",
  "Ghana Sites.Tracker IMEI": 0,
  "Installation Status": "Not Installed",
  "Check": "No_Tracker"
 },
 {
  "Site ID Number": 600144,
  "Latitude": 5.5820508,
  "Longitude": -0.2084203,
  "Site Name": "NEWTOWNLS",
  "Ghana Sites.Tracker IMEI": 0,
  "Installation Status": "Not Installed",
  "Check": "No_Tracker"
 },
 {
  "Site ID Number": 600145,
  "Latitude": 5.6017582,
  "Longitude": -0.219103,
  "Site Name": "NORTHALAJO",
  "Ghana Sites.Tracker IMEI": 0,
  "Installation Status": "Not Installed",
  "Check": "No_Tracker"
 },
 {
  "Site ID Number": 600147,
  "Latitude": 5.5869363,
  "Longitude": -0.2308437,
  "Site Name": "NORTHKANE3",
  "Ghana Sites.Tracker IMEI": 0,
  "Installation Status": "Not Installed",
  "Check": "No_Tracker"
 },
 {
  "Site ID Number": 600148,
  "Latitude": 5.6037883,
  "Longitude": -0.2746583,
  "Site Name": "SANTAMARIA",
  "Ghana Sites.Tracker IMEI": 0,
  "Installation Status": "Not Installed",
  "Check": "No_Tracker"
 },
 {
  "Site ID Number": 600149,
  "Latitude": 5.59238,
  "Longitude": -0.2724917,
  "Site Name": "KWASHIEMAN",
  "Ghana Sites.Tracker IMEI": 0,
  "Installation Status": "Not Installed",
  "Check": "No_Tracker"
 },
 {
  "Site ID Number": 600152,
  "Latitude": 5.5634218,
  "Longitude": -0.2026038,
  "Site Name": "YMCA",
  "Ghana Sites.Tracker IMEI": 0,
  "Installation Status": "Not Installed",
  "Check": "No_Tracker"
 },
 {
  "Site ID Number": 600157,
  "Latitude": 5.6662684,
  "Longitude": -0.1932582,
  "Site Name": "LEGON",
  "Ghana Sites.Tracker IMEI": 0,
  "Installation Status": "Not Installed",
  "Check": "No_Tracker"
 },
 {
  "Site ID Number": 600159,
  "Latitude": 5.66136333333333,
  "Longitude": -0.135711666666667,
  "Site Name": "MADINA1",
  "Ghana Sites.Tracker IMEI": 0,
  "Installation Status": "Not Installed",
  "Check": "No_Tracker"
 },
 {
  "Site ID Number": 600160,
  "Latitude": 5.69831805,
  "Longitude": -0.17863939,
  "Site Name": "ADENTA2",
  "Ghana Sites.Tracker IMEI": 0,
  "Installation Status": "Not Installed",
  "Check": "No_Tracker"
 },
 {
  "Site ID Number": 600161,
  "Latitude": 5.7041281,
  "Longitude": -0.1556984,
  "Site Name": "ADENTA3",
  "Ghana Sites.Tracker IMEI": 0,
  "Installation Status": "Not Installed",
  "Check": "No_Tracker"
 },
 {
  "Site ID Number": 600162,
  "Latitude": 5.67938525,
  "Longitude": -0.17398209,
  "Site Name": "MADINA4LS",
  "Ghana Sites.Tracker IMEI": 0,
  "Installation Status": "Not Installed",
  "Check": "No_Tracker"
 },
 {
  "Site ID Number": 600165,
  "Latitude": 5.5929133,
  "Longitude": -0.19818,
  "Site Name": "MAMOBI",
  "Ghana Sites.Tracker IMEI": 0,
  "Installation Status": "Not Installed",
  "Check": "No_Tracker"
 },
 {
  "Site ID Number": 600168,
  "Latitude": 5.5423912,
  "Longitude": -0.2142292,
  "Site Name": "PALLADIUM2",
  "Ghana Sites.Tracker IMEI": 0,
  "Installation Status": "Not Installed",
  "Check": "No_Tracker"
 },
 {
  "Site ID Number": 600178,
  "Latitude": 5.60335620006711,
  "Longitude": -0.242245930287862,
  "Site Name": "LAPAZ2",
  "Ghana Sites.Tracker IMEI": 0,
  "Installation Status": "Not Installed",
  "Check": "No_Tracker"
 },
 {
  "Site ID Number": 600179,
  "Latitude": 5.601335,
  "Longitude": -0.2315302,
  "Site Name": "TESANO2",
  "Ghana Sites.Tracker IMEI": 0,
  "Installation Status": "Not Installed",
  "Check": "No_Tracker"
 },
 {
  "Site ID Number": 600181,
  "Latitude": 5.55635666666667,
  "Longitude": -0.222323333333333,
  "Site Name": "GRAPHICROD",
  "Ghana Sites.Tracker IMEI": 0,
  "Installation Status": "Not Installed",
  "Check": "No_Tracker"
 },
 {
  "Site ID Number": 600188,
  "Latitude": 5.57031333333333,
  "Longitude": -0.292178333333333,
  "Site Name": "MCARTHY3H509VLS",
  "Ghana Sites.Tracker IMEI": 0,
  "Installation Status": "Not Installed",
  "Check": "No_Tracker"
 },
 {
  "Site ID Number": 600189,
  "Latitude": 5.5885129,
  "Longitude": -0.1550546,
  "Site Name": "BURMACAMP",
  "Ghana Sites.Tracker IMEI": 0,
  "Installation Status": "Not Installed",
  "Check": "No_Tracker"
 },
 {
  "Site ID Number": 600192,
  "Latitude": 6.677505,
  "Longitude": -1.59831666666667,
  "Site Name": "FONTONFROM",
  "Ghana Sites.Tracker IMEI": 0,
  "Installation Status": "Not Installed",
  "Check": "No_Tracker"
 },
 {
  "Site ID Number": 600193,
  "Latitude": 6.68103666666667,
  "Longitude": -1.59187833333333,
  "Site Name": "OFORIKROM",
  "Ghana Sites.Tracker IMEI": 0,
  "Installation Status": "Not Installed",
  "Check": "No_Tracker"
 },
 {
  "Site ID Number": 600194,
  "Latitude": 6.69050333333333,
  "Longitude": -1.59668666666667,
  "Site Name": "ASHFM",
  "Ghana Sites.Tracker IMEI": 0,
  "Installation Status": "Not Installed",
  "Check": "No_Tracker"
 },
 {
  "Site ID Number": 600195,
  "Latitude": 6.6888864,
  "Longitude": -1.6107065,
  "Site Name": "ASAFO",
  "Ghana Sites.Tracker IMEI": 0,
  "Installation Status": "Not Installed",
  "Check": "No_Tracker"
 },
 {
  "Site ID Number": 600196,
  "Latitude": 6.69392,
  "Longitude": -1.61808833333333,
  "Site Name": "BOMPATA3",
  "Ghana Sites.Tracker IMEI": 0,
  "Installation Status": "Not Installed",
  "Check": "No_Tracker"
 },
 {
  "Site ID Number": 600199,
  "Latitude": 6.699295,
  "Longitude": -1.62051,
  "Site Name": "MARKET3",
  "Ghana Sites.Tracker IMEI": 0,
  "Installation Status": "Not Installed",
  "Check": "No_Tracker"
 },
 {
  "Site ID Number": 600200,
  "Latitude": 6.68346,
  "Longitude": -1.611465,
  "Site Name": "ASAFO",
  "Ghana Sites.Tracker IMEI": 0,
  "Installation Status": "Not Installed",
  "Check": "No_Tracker"
 },
 {
  "Site ID Number": 600201,
  "Latitude": 6.67956,
  "Longitude": -1.60598833333333,
  "Site Name": "STADIUM",
  "Ghana Sites.Tracker IMEI": 0,
  "Installation Status": "Not Installed",
  "Check": "No_Tracker"
 },
 {
  "Site ID Number": 600203,
  "Latitude": 6.69697833333333,
  "Longitude": -1.57970833333333,
  "Site Name": "AYIGYA",
  "Ghana Sites.Tracker IMEI": 0,
  "Installation Status": "Not Installed",
  "Check": "No_Tracker"
 },
 {
  "Site ID Number": 600204,
  "Latitude": 6.68923166666667,
  "Longitude": -1.58569333333333,
  "Site Name": "OFORIKROM2",
  "Ghana Sites.Tracker IMEI": 0,
  "Installation Status": "Not Installed",
  "Check": "No_Tracker"
 },
 {
  "Site ID Number": 600206,
  "Latitude": 6.69650166666667,
  "Longitude": -1.61740333333333,
  "Site Name": "MARKET4",
  "Ghana Sites.Tracker IMEI": 0,
  "Installation Status": "Not Installed",
  "Check": "No_Tracker"
 },
 {
  "Site ID Number": 600207,
  "Latitude": 6.6983583,
  "Longitude": -1.6082033,
  "Site Name": "KWATIALINE",
  "Ghana Sites.Tracker IMEI": 0,
  "Installation Status": "Not Installed",
  "Check": "No_Tracker"
 },
 {
  "Site ID Number": 600208,
  "Latitude": 6.69946166666667,
  "Longitude": -1.59478,
  "Site Name": "ABOABO",
  "Ghana Sites.Tracker IMEI": 0,
  "Installation Status": "Not Installed",
  "Check": "No_Tracker"
 },
 {
  "Site ID Number": 600209,
  "Latitude": 6.69012166666667,
  "Longitude": -1.66537166666667,
  "Site Name": "KWADASO3",
  "Ghana Sites.Tracker IMEI": 0,
  "Installation Status": "Not Installed",
  "Check": "No_Tracker"
 },
 {
  "Site ID Number": 600210,
  "Latitude": 6.69365166666667,
  "Longitude": -1.65321333333333,
  "Site Name": "KWADASO2",
  "Ghana Sites.Tracker IMEI": 0,
  "Installation Status": "Not Installed",
  "Check": "No_Tracker"
 },
 {
  "Site ID Number": 600213,
  "Latitude": 6.70836,
  "Longitude": -1.62687833333333,
  "Site Name": "SOCIALCLUB",
  "Ghana Sites.Tracker IMEI": 0,
  "Installation Status": "Not Installed",
  "Check": "No_Tracker"
 },
 {
  "Site ID Number": 600218,
  "Latitude": 6.72026,
  "Longitude": -1.59725333333333,
  "Site Name": "KUMAIRPORT",
  "Ghana Sites.Tracker IMEI": 0,
  "Installation Status": "Not Installed",
  "Check": "No_Tracker"
 },
 {
  "Site ID Number": 600220,
  "Latitude": 6.72521166666667,
  "Longitude": -1.60476833333333,
  "Site Name": "MOSSIZONGO",
  "Ghana Sites.Tracker IMEI": 0,
  "Installation Status": "Not Installed",
  "Check": "No_Tracker"
 },
 {
  "Site ID Number": 600221,
  "Latitude": 6.72836833333333,
  "Longitude": -1.640235,
  "Site Name": "ANOMANGYE",
  "Ghana Sites.Tracker IMEI": 0,
  "Installation Status": "Not Installed",
  "Check": "No_Tracker"
 },
 {
  "Site ID Number": 600222,
  "Latitude": 6.7310373,
  "Longitude": -1.6261009,
  "Site Name": "SUAME",
  "Ghana Sites.Tracker IMEI": 0,
  "Installation Status": "Not Installed",
  "Check": "No_Tracker"
 },
 {
  "Site ID Number": 600223,
  "Latitude": 6.74229166666667,
  "Longitude": -1.60924166666667,
  "Site Name": "TAFOSCHOOL",
  "Ghana Sites.Tracker IMEI": 0,
  "Installation Status": "Not Installed",
  "Check": "No_Tracker"
 },
 {
  "Site ID Number": 600225,
  "Latitude": 6.74554,
  "Longitude": -1.62460833333333,
  "Site Name": "UGCBREMAN",
  "Ghana Sites.Tracker IMEI": 0,
  "Installation Status": "Not Installed",
  "Check": "No_Tracker"
 },
 {
  "Site ID Number": 600226,
  "Latitude": 6.75527833333333,
  "Longitude": -1.63777833333333,
  "Site Name": "KRONUM",
  "Ghana Sites.Tracker IMEI": 0,
  "Installation Status": "Not Installed",
  "Check": "No_Tracker"
 },
 {
  "Site ID Number": 600230,
  "Latitude": 6.66274333333333,
  "Longitude": -1.62669833333333,
  "Site Name": "WESNHYIASO",
  "Ghana Sites.Tracker IMEI": 0,
  "Installation Status": "Not Installed",
  "Check": "No_Tracker"
 },
 {
  "Site ID Number": 600232,
  "Latitude": 6.642435,
  "Longitude": -1.62203833333333,
  "Site Name": "DABINE",
  "Ghana Sites.Tracker IMEI": 0,
  "Installation Status": "Not Installed",
  "Check": "No_Tracker"
 },
 {
  "Site ID Number": 600233,
  "Latitude": 6.65635833333333,
  "Longitude": -1.60955166666667,
  "Site Name": "KASSE",
  "Ghana Sites.Tracker IMEI": 0,
  "Installation Status": "Not Installed",
  "Check": "No_Tracker"
 },
 {
  "Site ID Number": 600234,
  "Latitude": 6.68685166666667,
  "Longitude": -1.60600166666667,
  "Site Name": "ASOKWA2",
  "Ghana Sites.Tracker IMEI": 0,
  "Installation Status": "Not Installed",
  "Check": "No_Tracker"
 },
 {
  "Site ID Number": 600236,
  "Latitude": 6.649025,
  "Longitude": -1.59172333333333,
  "Site Name": "ATONSU1",
  "Ghana Sites.Tracker IMEI": 0,
  "Installation Status": "Not Installed",
  "Check": "No_Tracker"
 },
 {
  "Site ID Number": 600237,
  "Latitude": 6.66275,
  "Longitude": -1.56921833333333,
  "Site Name": "GYINASI",
  "Ghana Sites.Tracker IMEI": 0,
  "Installation Status": "Not Installed",
  "Check": "No_Tracker"
 },
 {
  "Site ID Number": 600239,
  "Latitude": 6.68483833333333,
  "Longitude": -1.57621333333333,
  "Site Name": "KNUST",
  "Ghana Sites.Tracker IMEI": 0,
  "Installation Status": "Not Installed",
  "Check": "No_Tracker"
 },
 {
  "Site ID Number": 600241,
  "Latitude": 6.630955,
  "Longitude": -1.61568666666667,
  "Site Name": "DABAIN2H53.5VLS",
  "Ghana Sites.Tracker IMEI": 0,
  "Installation Status": "Not Installed",
  "Check": "No_Tracker"
 },
 {
  "Site ID Number": 600242,
  "Latitude": 6.73263166666667,
  "Longitude": -1.58279333333333,
  "Site Name": "BUOKROM",
  "Ghana Sites.Tracker IMEI": 0,
  "Installation Status": "Not Installed",
  "Check": "No_Tracker"
 },
 {
  "Site ID Number": 600243,
  "Latitude": 6.76788666666667,
  "Longitude": -1.595435,
  "Site Name": "MEDUMA",
  "Ghana Sites.Tracker IMEI": 0,
  "Installation Status": "Not Installed",
  "Check": "No_Tracker"
 },
 {
  "Site ID Number": 600245,
  "Latitude": 6.69898333333333,
  "Longitude": -1.70842333333333,
  "Site Name": "ABUAKWA",
  "Ghana Sites.Tracker IMEI": 0,
  "Installation Status": "Not Installed",
  "Check": "No_Tracker"
 },
 {
  "Site ID Number": 600246,
  "Latitude": 6.67085833333333,
  "Longitude": -1.54238833333333,
  "Site Name": "EMENA",
  "Ghana Sites.Tracker IMEI": 0,
  "Installation Status": "Not Installed",
  "Check": "No_Tracker"
 },
 {
  "Site ID Number": 600248,
  "Latitude": 6.6473979,
  "Longitude": -1.6097248,
  "Site Name": "KASSE2",
  "Ghana Sites.Tracker IMEI": 0,
  "Installation Status": "Not Installed",
  "Check": "No_Tracker"
 },
 {
  "Site ID Number": 600249,
  "Latitude": 6.65788666666667,
  "Longitude": -1.584065,
  "Site Name": "GYINYASI2",
  "Ghana Sites.Tracker IMEI": 0,
  "Installation Status": "Not Installed",
  "Check": "No_Tracker"
 },
 {
  "Site ID Number": 600250,
  "Latitude": 6.66307833333333,
  "Longitude": -1.59998333333333,
  "Site Name": "AHINSAN2",
  "Ghana Sites.Tracker IMEI": 0,
  "Installation Status": "Not Installed",
  "Check": "No_Tracker"
 },
 {
  "Site ID Number": 600252,
  "Latitude": 6.705315,
  "Longitude": -1.57974666666667,
  "Site Name": "SAWABA",
  "Ghana Sites.Tracker IMEI": 0,
  "Installation Status": "Not Installed",
  "Check": "No_Tracker"
 },
 {
  "Site ID Number": 600255,
  "Latitude": 6.72046,
  "Longitude": -1.61692833333333,
  "Site Name": "TAFONYIESO",
  "Ghana Sites.Tracker IMEI": 0,
  "Installation Status": "Not Installed",
  "Check": "No_Tracker"
 },
 {
  "Site ID Number": 600256,
  "Latitude": 6.73244166666667,
  "Longitude": -1.61839333333333,
  "Site Name": "AHENBRONUM",
  "Ghana Sites.Tracker IMEI": 0,
  "Installation Status": "Not Installed",
  "Check": "No_Tracker"
 },
 {
  "Site ID Number": 600257,
  "Latitude": 6.73575333333333,
  "Longitude": -1.612175,
  "Site Name": "OLDTAFO",
  "Ghana Sites.Tracker IMEI": 0,
  "Installation Status": "Not Installed",
  "Check": "No_Tracker"
 },
 {
  "Site ID Number": 600258,
  "Latitude": 6.72667333333333,
  "Longitude": -1.64906166666667,
  "Site Name": "ABREPO",
  "Ghana Sites.Tracker IMEI": 0,
  "Installation Status": "Not Installed",
  "Check": "No_Tracker"
 },
 {
  "Site ID Number": 600260,
  "Latitude": 6.72609666666667,
  "Longitude": -1.63678666666667,
  "Site Name": "MARKO",
  "Ghana Sites.Tracker IMEI": 0,
  "Installation Status": "Not Installed",
  "Check": "No_Tracker"
 },
 {
  "Site ID Number": 600261,
  "Latitude": 6.78659333333333,
  "Longitude": -1.57506666666667,
  "Site Name": "MANPONGTENG",
  "Ghana Sites.Tracker IMEI": 0,
  "Installation Status": "Not Installed",
  "Check": "No_Tracker"
 },
 {
  "Site ID Number": 600266,
  "Latitude": 6.65732166666667,
  "Longitude": -1.63568333333333,
  "Site Name": "ADIEMBRA",
  "Ghana Sites.Tracker IMEI": 0,
  "Installation Status": "Not Installed",
  "Check": "No_Tracker"
 },
 {
  "Site ID Number": 600267,
  "Latitude": 6.66783833333333,
  "Longitude": -1.62062166666667,
  "Site Name": "NYIAESO",
  "Ghana Sites.Tracker IMEI": 0,
  "Installation Status": "Not Installed",
  "Check": "No_Tracker"
 },
 {
  "Site ID Number": 600271,
  "Latitude": 6.68149166666667,
  "Longitude": -1.59906666666667,
  "Site Name": "AMAKOM",
  "Ghana Sites.Tracker IMEI": 0,
  "Installation Status": "Not Installed",
  "Check": "No_Tracker"
 },
 {
  "Site ID Number": 600272,
  "Latitude": 6.67705333333333,
  "Longitude": -1.59219,
  "Site Name": "ANLOGA",
  "Ghana Sites.Tracker IMEI": 0,
  "Installation Status": "Not Installed",
  "Check": "No_Tracker"
 },
 {
  "Site ID Number": 600273,
  "Latitude": 6.67553,
  "Longitude": -1.588585,
  "Site Name": "OLDAHINSAN",
  "Ghana Sites.Tracker IMEI": 0,
  "Installation Status": "Not Installed",
  "Check": "No_Tracker"
 },
 {
  "Site ID Number": 600274,
  "Latitude": 6.68790666666667,
  "Longitude": -1.59248,
  "Site Name": "OFORIKROM3",
  "Ghana Sites.Tracker IMEI": 0,
  "Installation Status": "Not Installed",
  "Check": "No_Tracker"
 },
 {
  "Site ID Number": 600275,
  "Latitude": 6.69505666666667,
  "Longitude": -1.59916166666667,
  "Site Name": "ABOABO2",
  "Ghana Sites.Tracker IMEI": 0,
  "Installation Status": "Not Installed",
  "Check": "No_Tracker"
 },
 {
  "Site ID Number": 600277,
  "Latitude": 6.708845,
  "Longitude": -1.63731833333333,
  "Site Name": "SOSUNTRESO",
  "Ghana Sites.Tracker IMEI": 0,
  "Installation Status": "Not Installed",
  "Check": "No_Tracker"
 },
 {
  "Site ID Number": 600278,
  "Latitude": 6.7078815,
  "Longitude": -1.6195202,
  "Site Name": "ASHTOWN",
  "Ghana Sites.Tracker IMEI": 0,
  "Installation Status": "Not Installed",
  "Check": "No_Tracker"
 },
 {
  "Site ID Number": 600279,
  "Latitude": 6.70139666666667,
  "Longitude": -1.623395,
  "Site Name": "KEJETIA",
  "Ghana Sites.Tracker IMEI": 0,
  "Installation Status": "Not Installed",
  "Check": "No_Tracker"
 },
 {
  "Site ID Number": 600280,
  "Latitude": 6.696025,
  "Longitude": -1.613035,
  "Site Name": "YELEWA",
  "Ghana Sites.Tracker IMEI": 0,
  "Installation Status": "Not Installed",
  "Check": "No_Tracker"
 },
 {
  "Site ID Number": 600281,
  "Latitude": 6.695185,
  "Longitude": -1.62187666666667,
  "Site Name": "ADUM3",
  "Ghana Sites.Tracker IMEI": 0,
  "Installation Status": "Not Installed",
  "Check": "No_Tracker"
 },
 {
  "Site ID Number": 600282,
  "Latitude": 6.63369833333333,
  "Longitude": -1.627355,
  "Site Name": "DABINE3",
  "Ghana Sites.Tracker IMEI": 0,
  "Installation Status": "Not Installed",
  "Check": "No_Tracker"
 },
 {
  "Site ID Number": 600283,
  "Latitude": 6.66369333333333,
  "Longitude": -1.65344333333333,
  "Site Name": "WOMASE2",
  "Ghana Sites.Tracker IMEI": 0,
  "Installation Status": "Not Installed",
  "Check": "No_Tracker"
 },
 {
  "Site ID Number": 600284,
  "Latitude": 6.67851666666667,
  "Longitude": -1.548545,
  "Site Name": "AYIDUASE2",
  "Ghana Sites.Tracker IMEI": 0,
  "Installation Status": "Not Installed",
  "Check": "No_Tracker"
 },
 {
  "Site ID Number": 600287,
  "Latitude": 6.75918333333333,
  "Longitude": -1.63017666666667,
  "Site Name": "KWAPRA",
  "Ghana Sites.Tracker IMEI": 0,
  "Installation Status": "Not Installed",
  "Check": "No_Tracker"
 },
 {
  "Site ID Number": 600290,
  "Latitude": 6.66775333333333,
  "Longitude": -1.584605,
  "Site Name": "KNUST2",
  "Ghana Sites.Tracker IMEI": 0,
  "Installation Status": "Not Installed",
  "Check": "No_Tracker"
 },
 {
  "Site ID Number": 600292,
  "Latitude": 6.771305,
  "Longitude": -1.58257333333333,
  "Site Name": "FAWADE",
  "Ghana Sites.Tracker IMEI": 0,
  "Installation Status": "Not Installed",
  "Check": "No_Tracker"
 },
 {
  "Site ID Number": 600293,
  "Latitude": 6.65701833333333,
  "Longitude": -1.61931666666667,
  "Site Name": "AHODWO",
  "Ghana Sites.Tracker IMEI": 0,
  "Installation Status": "Not Installed",
  "Check": "No_Tracker"
 },
 {
  "Site ID Number": 600295,
  "Latitude": 6.67249666666667,
  "Longitude": -1.628925,
  "Site Name": "NHYIAESO2",
  "Ghana Sites.Tracker IMEI": 0,
  "Installation Status": "Not Installed",
  "Check": "No_Tracker"
 },
 {
  "Site ID Number": 600296,
  "Latitude": 6.63896,
  "Longitude": -1.60598333333333,
  "Site Name": "KAASE3",
  "Ghana Sites.Tracker IMEI": 0,
  "Installation Status": "Not Installed",
  "Check": "No_Tracker"
 },
 {
  "Site ID Number": 600297,
  "Latitude": 6.69871666666667,
  "Longitude": -1.61563,
  "Site Name": "ALLABAR",
  "Ghana Sites.Tracker IMEI": 0,
  "Installation Status": "Not Installed",
  "Check": "No_Tracker"
 },
 {
  "Site ID Number": 600298,
  "Latitude": 6.71468833333333,
  "Longitude": -1.67405833333333,
  "Site Name": "APESIKA",
  "Ghana Sites.Tracker IMEI": 0,
  "Installation Status": "Not Installed",
  "Check": "No_Tracker"
 },
 {
  "Site ID Number": 600299,
  "Latitude": 6.751485,
  "Longitude": -1.64895833333333,
  "Site Name": "KRONUM2",
  "Ghana Sites.Tracker IMEI": 0,
  "Installation Status": "Not Installed",
  "Check": "No_Tracker"
 },
 {
  "Site ID Number": 600300,
  "Latitude": 6.66533,
  "Longitude": -1.61504833333333,
  "Site Name": "ADIEBEBA",
  "Ghana Sites.Tracker IMEI": 0,
  "Installation Status": "Not Installed",
  "Check": "No_Tracker"
 },
 {
  "Site ID Number": 600302,
  "Latitude": 6.73313,
  "Longitude": -1.64238,
  "Site Name": "ABUSUAKRUWA",
  "Ghana Sites.Tracker IMEI": 0,
  "Installation Status": "Not Installed",
  "Check": "No_Tracker"
 },
 {
  "Site ID Number": 600305,
  "Latitude": 6.76230333333333,
  "Longitude": -1.61804,
  "Site Name": "ATIMATIM2",
  "Ghana Sites.Tracker IMEI": 0,
  "Installation Status": "Not Installed",
  "Check": "No_Tracker"
 },
 {
  "Site ID Number": 600308,
  "Latitude": 6.69273333333333,
  "Longitude": -1.62805,
  "Site Name": "UADDARA",
  "Ghana Sites.Tracker IMEI": 0,
  "Installation Status": "Not Installed",
  "Check": "No_Tracker"
 },
 {
  "Site ID Number": 600309,
  "Latitude": 6.73199166666667,
  "Longitude": -1.59113333333333,
  "Site Name": "BUOKROM3",
  "Ghana Sites.Tracker IMEI": 0,
  "Installation Status": "Not Installed",
  "Check": "No_Tracker"
 },
 {
  "Site ID Number": 600310,
  "Latitude": 6.65607833333333,
  "Longitude": -1.57265333333333,
  "Site Name": "GYINASI3",
  "Ghana Sites.Tracker IMEI": 0,
  "Installation Status": "Not Installed",
  "Check": "No_Tracker"
 },
 {
  "Site ID Number": 600311,
  "Latitude": 6.72149833333333,
  "Longitude": -1.540105,
  "Site Name": "PARKOSO600311",
  "Ghana Sites.Tracker IMEI": 0,
  "Installation Status": "Not Installed",
  "Check": "No_Tracker"
 },
 {
  "Site ID Number": 600313,
  "Latitude": 6.69729833333333,
  "Longitude": -1.54006,
  "Site Name": "FUMESUA2",
  "Ghana Sites.Tracker IMEI": 0,
  "Installation Status": "Not Installed",
  "Check": "No_Tracker"
 },
 {
  "Site ID Number": 600314,
  "Latitude": 6.72541333333333,
  "Longitude": -1.57495333333333,
  "Site Name": "SEPEDOTE",
  "Ghana Sites.Tracker IMEI": 0,
  "Installation Status": "Not Installed",
  "Check": "No_Tracker"
 },
 {
  "Site ID Number": 600316,
  "Latitude": 6.70125833333333,
  "Longitude": -1.65178666666667,
  "Site Name": "KWADASO5",
  "Ghana Sites.Tracker IMEI": 0,
  "Installation Status": "Not Installed",
  "Check": "No_Tracker"
 },
 {
  "Site ID Number": 600317,
  "Latitude": 6.72157833333333,
  "Longitude": -1.60838333333333,
  "Site Name": "TFONYSO2",
  "Ghana Sites.Tracker IMEI": 0,
  "Installation Status": "Not Installed",
  "Check": "No_Tracker"
 },
 {
  "Site ID Number": 600318,
  "Latitude": 6.69448666666667,
  "Longitude": -1.620085,
  "Site Name": "CENTRALMKT",
  "Ghana Sites.Tracker IMEI": 0,
  "Installation Status": "Not Installed",
  "Check": "No_Tracker"
 },
 {
  "Site ID Number": 600319,
  "Latitude": 6.67703166666667,
  "Longitude": -1.50614333333333,
  "Site Name": "DOMEABRAKS",
  "Ghana Sites.Tracker IMEI": 0,
  "Installation Status": "Not Installed",
  "Check": "No_Tracker"
 },
 {
  "Site ID Number": 600321,
  "Latitude": 6.69821,
  "Longitude": -1.60184833333333,
  "Site Name": "ABOABO3",
  "Ghana Sites.Tracker IMEI": 0,
  "Installation Status": "Not Installed",
  "Check": "No_Tracker"
 },
 {
  "Site ID Number": 600322,
  "Latitude": 6.65428166666667,
  "Longitude": -1.58521833333333,
  "Site Name": "ATONSO4",
  "Ghana Sites.Tracker IMEI": 0,
  "Installation Status": "Not Installed",
  "Check": "No_Tracker"
 },
 {
  "Site ID Number": 600325,
  "Latitude": 6.69886166666667,
  "Longitude": -1.625375,
  "Site Name": "KEJETIA2",
  "Ghana Sites.Tracker IMEI": 0,
  "Installation Status": "Not Installed",
  "Check": "No_Tracker"
 },
 {
  "Site ID Number": 600327,
  "Latitude": 6.65506833333333,
  "Longitude": -1.59919833333333,
  "Site Name": "KAASE4",
  "Ghana Sites.Tracker IMEI": 0,
  "Installation Status": "Not Installed",
  "Check": "No_Tracker"
 },
 {
  "Site ID Number": 600328,
  "Latitude": 6.66538166666667,
  "Longitude": -1.63683833333333,
  "Site Name": "TUCKSI",
  "Ghana Sites.Tracker IMEI": 0,
  "Installation Status": "Not Installed",
  "Check": "No_Tracker"
 },
 {
  "Site ID Number": 600329,
  "Latitude": 6.645775,
  "Longitude": -1.63950333333333,
  "Site Name": "ANYINAMAR",
  "Ghana Sites.Tracker IMEI": 0,
  "Installation Status": "Not Installed",
  "Check": "No_Tracker"
 },
 {
  "Site ID Number": 600330,
  "Latitude": 6.71080833333333,
  "Longitude": -1.70957,
  "Site Name": "ABUAKWA2",
  "Ghana Sites.Tracker IMEI": 0,
  "Installation Status": "Not Installed",
  "Check": "No_Tracker"
 },
 {
  "Site ID Number": 600332,
  "Latitude": 6.71716,
  "Longitude": -1.62333166666667,
  "Site Name": "TAFOCMTRY",
  "Ghana Sites.Tracker IMEI": 0,
  "Installation Status": "Not Installed",
  "Check": "No_Tracker"
 },
 {
  "Site ID Number": 600333,
  "Latitude": 6.737615,
  "Longitude": -1.60276166666667,
  "Site Name": "TAFOMPASEM",
  "Ghana Sites.Tracker IMEI": 0,
  "Installation Status": "Not Installed",
  "Check": "No_Tracker"
 },
 {
  "Site ID Number": 600334,
  "Latitude": 6.62498333333333,
  "Longitude": -1.62211666666667,
  "Site Name": "SOKOBAN",
  "Ghana Sites.Tracker IMEI": 0,
  "Installation Status": "Not Installed",
  "Check": "No_Tracker"
 },
 {
  "Site ID Number": 600335,
  "Latitude": 6.76756833333333,
  "Longitude": -1.58627833333333,
  "Site Name": "MEDUMA2",
  "Ghana Sites.Tracker IMEI": 0,
  "Installation Status": "Not Installed",
  "Check": "No_Tracker"
 },
 {
  "Site ID Number": 600336,
  "Latitude": 6.69789666666667,
  "Longitude": -1.66535333333333,
  "Site Name": "ASUOYEBOA2",
  "Ghana Sites.Tracker IMEI": 0,
  "Installation Status": "Not Installed",
  "Check": "No_Tracker"
 },
 {
  "Site ID Number": 600337,
  "Latitude": 6.68720333333333,
  "Longitude": -1.570185,
  "Site Name": "KNUSTAYIGYA",
  "Ghana Sites.Tracker IMEI": 0,
  "Installation Status": "Not Installed",
  "Check": "No_Tracker"
 },
 {
  "Site ID Number": 600338,
  "Latitude": 6.65194333333333,
  "Longitude": -1.645125,
  "Site Name": "SANTASI2",
  "Ghana Sites.Tracker IMEI": 0,
  "Installation Status": "Not Installed",
  "Check": "No_Tracker"
 },
 {
  "Site ID Number": 600340,
  "Latitude": 6.70966166666667,
  "Longitude": -1.66565333333333,
  "Site Name": "4BNBARAKS",
  "Ghana Sites.Tracker IMEI": 0,
  "Installation Status": "Not Installed",
  "Check": "No_Tracker"
 },
 {
  "Site ID Number": 600342,
  "Latitude": 6.73084666666667,
  "Longitude": -1.61244166666667,
  "Site Name": "TAFOZONGO",
  "Ghana Sites.Tracker IMEI": 0,
  "Installation Status": "Not Installed",
  "Check": "No_Tracker"
 },
 {
  "Site ID Number": 600343,
  "Latitude": 5.59448,
  "Longitude": -0.2208,
  "Site Name": "FIDELITYBANKHQ",
  "Ghana Sites.Tracker IMEI": 0,
  "Installation Status": "Not Installed",
  "Check": "No_Tracker"
 },
 {
  "Site ID Number": 600344,
  "Latitude": 6.74302833333333,
  "Longitude": -1.600695,
  "Site Name": "PANKROEST",
  "Ghana Sites.Tracker IMEI": 0,
  "Installation Status": "Not Installed",
  "Check": "No_Tracker"
 },
 {
  "Site ID Number": 600345,
  "Latitude": 6.74013166666667,
  "Longitude": -1.631635,
  "Site Name": "BREMANG",
  "Ghana Sites.Tracker IMEI": 0,
  "Installation Status": "Not Installed",
  "Check": "No_Tracker"
 },
 {
  "Site ID Number": 600347,
  "Latitude": 6.75329666666667,
  "Longitude": -1.58846,
  "Site Name": "AHWIAOVSEA",
  "Ghana Sites.Tracker IMEI": 0,
  "Installation Status": "Not Installed",
  "Check": "No_Tracker"
 },
 {
  "Site ID Number": 600348,
  "Latitude": 6.73133333333333,
  "Longitude": -1.63653333333333,
  "Site Name": "MAAKRO2",
  "Ghana Sites.Tracker IMEI": 0,
  "Installation Status": "Not Installed",
  "Check": "No_Tracker"
 },
 {
  "Site ID Number": 600350,
  "Latitude": 6.670235,
  "Longitude": -1.64771166666667,
  "Site Name": "SANTASIRBT",
  "Ghana Sites.Tracker IMEI": 0,
  "Installation Status": "Not Installed",
  "Check": "No_Tracker"
 },
 {
  "Site ID Number": 600351,
  "Latitude": 6.67172666666667,
  "Longitude": -1.59854,
  "Site Name": "ASOKWA3",
  "Ghana Sites.Tracker IMEI": 0,
  "Installation Status": "Not Installed",
  "Check": "No_Tracker"
 },
 {
  "Site ID Number": 600352,
  "Latitude": 6.72445,
  "Longitude": -1.558435,
  "Site Name": "BUABAI",
  "Ghana Sites.Tracker IMEI": 0,
  "Installation Status": "Not Installed",
  "Check": "No_Tracker"
 },
 {
  "Site ID Number": 600353,
  "Latitude": 6.70415666666667,
  "Longitude": -1.56836,
  "Site Name": "ASOKOREMPG",
  "Ghana Sites.Tracker IMEI": 0,
  "Installation Status": "Not Installed",
  "Check": "No_Tracker"
 },
 {
  "Site ID Number": 600354,
  "Latitude": 6.70729,
  "Longitude": -1.64655333333333,
  "Site Name": "ADWOATO",
  "Ghana Sites.Tracker IMEI": 0,
  "Installation Status": "Not Installed",
  "Check": "No_Tracker"
 },
 {
  "Site ID Number": 600355,
  "Latitude": 6.77559,
  "Longitude": -1.59729333333333,
  "Site Name": "MEDUMA3",
  "Ghana Sites.Tracker IMEI": 0,
  "Installation Status": "Not Installed",
  "Check": "No_Tracker"
 },
 {
  "Site ID Number": 600356,
  "Latitude": 6.72143,
  "Longitude": -1.66406666666667,
  "Site Name": "ABRPOKOKSO",
  "Ghana Sites.Tracker IMEI": 0,
  "Installation Status": "Not Installed",
  "Check": "No_Tracker"
 },
 {
  "Site ID Number": 600358,
  "Latitude": 6.68331,
  "Longitude": -1.58670666666667,
  "Site Name": "DECABIN",
  "Ghana Sites.Tracker IMEI": 0,
  "Installation Status": "Not Installed",
  "Check": "No_Tracker"
 },
 {
  "Site ID Number": 600360,
  "Latitude": 6.710065,
  "Longitude": -1.53897,
  "Site Name": "APERADE",
  "Ghana Sites.Tracker IMEI": 0,
  "Installation Status": "Not Installed",
  "Check": "No_Tracker"
 },
 {
  "Site ID Number": 600361,
  "Latitude": 6.67356333333333,
  "Longitude": -1.553405,
  "Site Name": "AYDUASE3",
  "Ghana Sites.Tracker IMEI": 0,
  "Installation Status": "Not Installed",
  "Check": "No_Tracker"
 },
 {
  "Site ID Number": 600362,
  "Latitude": 6.71637833333333,
  "Longitude": -1.61115333333333,
  "Site Name": "KROFOUM",
  "Ghana Sites.Tracker IMEI": 0,
  "Installation Status": "Not Installed",
  "Check": "No_Tracker"
 },
 {
  "Site ID Number": 600363,
  "Latitude": 6.6927,
  "Longitude": -1.718065,
  "Site Name": "ABUAKWA3",
  "Ghana Sites.Tracker IMEI": 0,
  "Installation Status": "Not Installed",
  "Check": "No_Tracker"
 },
 {
  "Site ID Number": 600364,
  "Latitude": 6.65541,
  "Longitude": -1.54669,
  "Site Name": "DEDUAKO",
  "Ghana Sites.Tracker IMEI": 0,
  "Installation Status": "Not Installed",
  "Check": "No_Tracker"
 },
 {
  "Site ID Number": 600365,
  "Latitude": 6.74843666666667,
  "Longitude": -1.60469166666667,
  "Site Name": "PANKRONO2",
  "Ghana Sites.Tracker IMEI": 0,
  "Installation Status": "Not Installed",
  "Check": "No_Tracker"
 },
 {
  "Site ID Number": 600366,
  "Latitude": 6.746585,
  "Longitude": -1.65442166666667,
  "Site Name": "KRONUM3",
  "Ghana Sites.Tracker IMEI": 0,
  "Installation Status": "Not Installed",
  "Check": "No_Tracker"
 },
 {
  "Site ID Number": 600367,
  "Latitude": 6.72563666666667,
  "Longitude": -1.64429666666667,
  "Site Name": "ANOMANGYE2",
  "Ghana Sites.Tracker IMEI": 0,
  "Installation Status": "Not Installed",
  "Check": "No_Tracker"
 },
 {
  "Site ID Number": 600370,
  "Latitude": 6.69732166666667,
  "Longitude": -1.63257166666667,
  "Site Name": "KATHHOSPTL",
  "Ghana Sites.Tracker IMEI": 0,
  "Installation Status": "Not Installed",
  "Check": "No_Tracker"
 },
 {
  "Site ID Number": 600371,
  "Latitude": 6.723955,
  "Longitude": -1.61257666666667,
  "Site Name": "TAFOHOSPTL",
  "Ghana Sites.Tracker IMEI": 0,
  "Installation Status": "Not Installed",
  "Check": "No_Tracker"
 },
 {
  "Site ID Number": 600372,
  "Latitude": 6.66693,
  "Longitude": -1.606075,
  "Site Name": "ASKWAPOLIC",
  "Ghana Sites.Tracker IMEI": 0,
  "Installation Status": "Not Installed",
  "Check": "No_Tracker"
 },
 {
  "Site ID Number": 600373,
  "Latitude": 5.6627975,
  "Longitude": 0.0103268,
  "Site Name": "TEMINDUTRY",
  "Ghana Sites.Tracker IMEI": 0,
  "Installation Status": "Not Installed",
  "Check": "No_Tracker"
 },
 {
  "Site ID Number": 600374,
  "Latitude": 5.6828017,
  "Longitude": -0.016265,
  "Site Name": "TEMA1",
  "Ghana Sites.Tracker IMEI": 0,
  "Installation Status": "Not Installed",
  "Check": "No_Tracker"
 },
 {
  "Site ID Number": 600377,
  "Latitude": 5.6560006,
  "Longitude": -0.0159287,
  "Site Name": "TEMACOMM4",
  "Ghana Sites.Tracker IMEI": 0,
  "Installation Status": "Not Installed",
  "Check": "No_Tracker"
 },
 {
  "Site ID Number": 600378,
  "Latitude": 5.6540935,
  "Longitude": 0.0185213,
  "Site Name": "VALCO",
  "Ghana Sites.Tracker IMEI": 0,
  "Installation Status": "Not Installed",
  "Check": "No_Tracker"
 },
 {
  "Site ID Number": 600379,
  "Latitude": 5.64051024210848,
  "Longitude": -0.0664844015818371,
  "Site Name": "COMM18",
  "Ghana Sites.Tracker IMEI": 0,
  "Installation Status": "Not Installed",
  "Check": "No_Tracker"
 },
 {
  "Site ID Number": 600381,
  "Latitude": 5.64262726845996,
  "Longitude": -0.114542200068012,
  "Site Name": "SPINTEX",
  "Ghana Sites.Tracker IMEI": 0,
  "Installation Status": "Not Installed",
  "Check": "No_Tracker"
 },
 {
  "Site ID Number": 600382,
  "Latitude": 5.6482416,
  "Longitude": 0.0209683,
  "Site Name": "TEMANEWTOWN",
  "Ghana Sites.Tracker IMEI": 0,
  "Installation Status": "Not Installed",
  "Check": "No_Tracker"
 },
 {
  "Site ID Number": 600384,
  "Latitude": 5.6382906,
  "Longitude": -0.000248,
  "Site Name": "TEMAPORTLS",
  "Ghana Sites.Tracker IMEI": 0,
  "Installation Status": "Not Installed",
  "Check": "No_Tracker"
 },
 {
  "Site ID Number": 600385,
  "Latitude": 5.6471349,
  "Longitude": -0.000578,
  "Site Name": "TEMAMARKET",
  "Ghana Sites.Tracker IMEI": 0,
  "Installation Status": "Not Installed",
  "Check": "No_Tracker"
 },
 {
  "Site ID Number": 600387,
  "Latitude": 5.677275,
  "Longitude": -0.12328,
  "Site Name": "NMAIDZORN",
  "Ghana Sites.Tracker IMEI": 0,
  "Installation Status": "Not Installed",
  "Check": "No_Tracker"
 },
 {
  "Site ID Number": 600389,
  "Latitude": 5.65014572004006,
  "Longitude": -0.0873629258650251,
  "Site Name": "SPINTEX2",
  "Ghana Sites.Tracker IMEI": 0,
  "Installation Status": "Not Installed",
  "Check": "No_Tracker"
 },
 {
  "Site ID Number": 600391,
  "Latitude": 5.5821444,
  "Longitude": -0.1176559,
  "Site Name": "TESHIE2",
  "Ghana Sites.Tracker IMEI": 0,
  "Installation Status": "Not Installed",
  "Check": "No_Tracker"
 },
 {
  "Site ID Number": 600395,
  "Latitude": 5.681985,
  "Longitude": -0.0592637,
  "Site Name": "ASHAYMAN2",
  "Ghana Sites.Tracker IMEI": 0,
  "Installation Status": "Not Installed",
  "Check": "No_Tracker"
 },
 {
  "Site ID Number": 600396,
  "Latitude": 5.6591056,
  "Longitude": -0.0334179,
  "Site Name": "COMM11\/12",
  "Ghana Sites.Tracker IMEI": 0,
  "Installation Status": "Not Installed",
  "Check": "No_Tracker"
 },
 {
  "Site ID Number": 600397,
  "Latitude": 5.67292,
  "Longitude": -0.0159533,
  "Site Name": "COMM9",
  "Ghana Sites.Tracker IMEI": 0,
  "Installation Status": "Not Installed",
  "Check": "No_Tracker"
 },
 {
  "Site ID Number": 600399,
  "Latitude": 5.649304,
  "Longitude": 0.0032713,
  "Site Name": "TEMAINDUSTRY3",
  "Ghana Sites.Tracker IMEI": 0,
  "Installation Status": "Not Installed",
  "Check": "No_Tracker"
 },
 {
  "Site ID Number": 600401,
  "Latitude": 5.6412398,
  "Longitude": -0.0071334,
  "Site Name": "TEMATDC",
  "Ghana Sites.Tracker IMEI": 0,
  "Installation Status": "Not Installed",
  "Check": "No_Tracker"
 },
 {
  "Site ID Number": 600402,
  "Latitude": 5.6253867,
  "Longitude": -0.0130083,
  "Site Name": "TEMAHARBOUR",
  "Ghana Sites.Tracker IMEI": 0,
  "Installation Status": "Not Installed",
  "Check": "No_Tracker"
 },
 {
  "Site ID Number": 600403,
  "Latitude": 5.632505,
  "Longitude": -0.0186683,
  "Site Name": "TEMACOM2B",
  "Ghana Sites.Tracker IMEI": 0,
  "Installation Status": "Not Installed",
  "Check": "No_Tracker"
 },
 {
  "Site ID Number": 600408,
  "Latitude": 5.6667317,
  "Longitude": -0.0119467,
  "Site Name": "TEMACOMM7",
  "Ghana Sites.Tracker IMEI": 0,
  "Installation Status": "Not Installed",
  "Check": "No_Tracker"
 },
 {
  "Site ID Number": 600410,
  "Latitude": 5.6710626,
  "Longitude": -0.0226262,
  "Site Name": "TEMACOM11",
  "Ghana Sites.Tracker IMEI": 0,
  "Installation Status": "Not Installed",
  "Check": "No_Tracker"
 },
 {
  "Site ID Number": 600413,
  "Latitude": 5.7317931,
  "Longitude": 0.0265243,
  "Site Name": "ASHAIMARBT",
  "Ghana Sites.Tracker IMEI": 0,
  "Installation Status": "Not Installed",
  "Check": "No_Tracker"
 },
 {
  "Site ID Number": 600415,
  "Latitude": 5.5944902,
  "Longitude": -0.1099106,
  "Site Name": "TSUIBLEO1",
  "Ghana Sites.Tracker IMEI": 0,
  "Installation Status": "Not Installed",
  "Check": "No_Tracker"
 },
 {
  "Site ID Number": 600416,
  "Latitude": 5.59681,
  "Longitude": -0.0863333333333333,
  "Site Name": "NUNGUAC5",
  "Ghana Sites.Tracker IMEI": 0,
  "Installation Status": "Not Installed",
  "Check": "No_Tracker"
 },
 {
  "Site ID Number": 600417,
  "Latitude": 5.62032625842996,
  "Longitude": -0.0678735184267368,
  "Site Name": "SAKUMONO2",
  "Ghana Sites.Tracker IMEI": 0,
  "Installation Status": "Not Installed",
  "Check": "No_Tracker"
 },
 {
  "Site ID Number": 600418,
  "Latitude": 5.61572831496392,
  "Longitude": -0.0863716340542647,
  "Site Name": "NUNGUABOADE",
  "Ghana Sites.Tracker IMEI": 0,
  "Installation Status": "Not Installed",
  "Check": "No_Tracker"
 },
 {
  "Site ID Number": 600422,
  "Latitude": 5.62440389225142,
  "Longitude": -0.117732367556913,
  "Site Name": "SPINTEX3",
  "Ghana Sites.Tracker IMEI": 0,
  "Installation Status": "Not Installed",
  "Check": "No_Tracker"
 },
 {
  "Site ID Number": 600427,
  "Latitude": 5.6428188,
  "Longitude": 0.0070671,
  "Site Name": "UNILEVER",
  "Ghana Sites.Tracker IMEI": 0,
  "Installation Status": "Not Installed",
  "Check": "No_Tracker"
 },
 {
  "Site ID Number": 600428,
  "Latitude": 5.715026,
  "Longitude": -0.0247512,
  "Site Name": "TEMACOM22",
  "Ghana Sites.Tracker IMEI": 0,
  "Installation Status": "Not Installed",
  "Check": "No_Tracker"
 },
 {
  "Site ID Number": 600429,
  "Latitude": 5.6120929,
  "Longitude": -0.1149696,
  "Site Name": "TSUIBLEOO2",
  "Ghana Sites.Tracker IMEI": 0,
  "Installation Status": "Not Installed",
  "Check": "No_Tracker"
 },
 {
  "Site ID Number": 600431,
  "Latitude": 5.7016961,
  "Longitude": -0.0341549,
  "Site Name": "ASHIAMAN4LS",
  "Ghana Sites.Tracker IMEI": 0,
  "Installation Status": "Not Installed",
  "Check": "No_Tracker"
 },
 {
  "Site ID Number": 600435,
  "Latitude": 5.6032282,
  "Longitude": -0.0808298,
  "Site Name": "NUNGUA3H50.5V",
  "Ghana Sites.Tracker IMEI": 0,
  "Installation Status": "Not Installed",
  "Check": "No_Tracker"
 },
 {
  "Site ID Number": 600437,
  "Latitude": 5.63272453615702,
  "Longitude": -0.139999246969301,
  "Site Name": "SPINTEXPAP",
  "Ghana Sites.Tracker IMEI": 0,
  "Installation Status": "Not Installed",
  "Check": "No_Tracker"
 },
 {
  "Site ID Number": 600438,
  "Latitude": 5.62639655935675,
  "Longitude": -0.126264775550178,
  "Site Name": "REGIMANUEL",
  "Ghana Sites.Tracker IMEI": 0,
  "Installation Status": "Not Installed",
  "Check": "No_Tracker"
 },
 {
  "Site ID Number": 600441,
  "Latitude": 5.6994033,
  "Longitude": -0.0420818,
  "Site Name": "ASHJERICO",
  "Ghana Sites.Tracker IMEI": 0,
  "Installation Status": "Not Installed",
  "Check": "No_Tracker"
 },
 {
  "Site ID Number": 600443,
  "Latitude": 5.5811998,
  "Longitude": -0.1082999,
  "Site Name": "TESIDONSIA",
  "Ghana Sites.Tracker IMEI": 0,
  "Installation Status": "Not Installed",
  "Check": "No_Tracker"
 },
 {
  "Site ID Number": 600444,
  "Latitude": 5.7140724,
  "Longitude": -0.0438641,
  "Site Name": "ASHLEBANON",
  "Ghana Sites.Tracker IMEI": 0,
  "Installation Status": "Not Installed",
  "Check": "No_Tracker"
 },
 {
  "Site ID Number": 600447,
  "Latitude": 5.6804251,
  "Longitude": 0.0014209,
  "Site Name": "TINDUSTRY4",
  "Ghana Sites.Tracker IMEI": 0,
  "Installation Status": "Not Installed",
  "Check": "No_Tracker"
 },
 {
  "Site ID Number": 600448,
  "Latitude": 5.6568199,
  "Longitude": 0.0235374,
  "Site Name": "TINDUSTRY5",
  "Ghana Sites.Tracker IMEI": 0,
  "Installation Status": "Not Installed",
  "Check": "No_Tracker"
 },
 {
  "Site ID Number": 600449,
  "Latitude": 5.6423484,
  "Longitude": -0.015483,
  "Site Name": "TEMACOM5",
  "Ghana Sites.Tracker IMEI": 0,
  "Installation Status": "Not Installed",
  "Check": "No_Tracker"
 },
 {
  "Site ID Number": 600453,
  "Latitude": 5.69110273,
  "Longitude": 0.05241292,
  "Site Name": "KPONE",
  "Ghana Sites.Tracker IMEI": 0,
  "Installation Status": "Not Installed",
  "Check": "No_Tracker"
 },
 {
  "Site ID Number": 600455,
  "Latitude": 5.7393792,
  "Longitude": 0.16636478,
  "Site Name": "NEWNINGO",
  "Ghana Sites.Tracker IMEI": 0,
  "Installation Status": "Not Installed",
  "Check": "No_Tracker"
 },
 {
  "Site ID Number": 600456,
  "Latitude": 5.6105383,
  "Longitude": -0.08799,
  "Site Name": "NUNADOGONH50.5V",
  "Ghana Sites.Tracker IMEI": 0,
  "Installation Status": "Not Installed",
  "Check": "No_Tracker"
 },
 {
  "Site ID Number": 600458,
  "Latitude": 5.7271554,
  "Longitude": 0.0067884,
  "Site Name": "KAKASUNAK3",
  "Ghana Sites.Tracker IMEI": 0,
  "Installation Status": "Not Installed",
  "Check": "No_Tracker"
 },
 {
  "Site ID Number": 600459,
  "Latitude": 5.5722567,
  "Longitude": -0.1270017,
  "Site Name": "TESHIE3",
  "Ghana Sites.Tracker IMEI": 0,
  "Installation Status": "Not Installed",
  "Check": "No_Tracker"
 },
 {
  "Site ID Number": 600460,
  "Latitude": 5.6666517,
  "Longitude": -0.08198,
  "Site Name": "NUNGUAFARM",
  "Ghana Sites.Tracker IMEI": 0,
  "Installation Status": "Not Installed",
  "Check": "No_Tracker"
 },
 {
  "Site ID Number": 600461,
  "Latitude": 5.70768118,
  "Longitude": 0.02788867,
  "Site Name": "KPONEJN2",
  "Ghana Sites.Tracker IMEI": 0,
  "Installation Status": "Not Installed",
  "Check": "No_Tracker"
 },
 {
  "Site ID Number": 600462,
  "Latitude": 5.6618697,
  "Longitude": -0.021194,
  "Site Name": "TEMACOM11",
  "Ghana Sites.Tracker IMEI": 0,
  "Installation Status": "Not Installed",
  "Check": "No_Tracker"
 },
 {
  "Site ID Number": 600463,
  "Latitude": 5.7366029,
  "Longitude": 0.0300025,
  "Site Name": "TEMACOM25",
  "Ghana Sites.Tracker IMEI": 0,
  "Installation Status": "Not Installed",
  "Check": "No_Tracker"
 },
 {
  "Site ID Number": 600464,
  "Latitude": 5.6539605,
  "Longitude": 0.0260068,
  "Site Name": "TNEWTOWN2",
  "Ghana Sites.Tracker IMEI": 0,
  "Installation Status": "Not Installed",
  "Check": "No_Tracker"
 },
 {
  "Site ID Number": 600465,
  "Latitude": 5.75835076,
  "Longitude": 0.08202496,
  "Site Name": "MIOTSO",
  "Ghana Sites.Tracker IMEI": 0,
  "Installation Status": "Not Installed",
  "Check": "No_Tracker"
 },
 {
  "Site ID Number": 600467,
  "Latitude": 5.6035583,
  "Longitude": -0.1103567,
  "Site Name": "TESSAFARI",
  "Ghana Sites.Tracker IMEI": 0,
  "Installation Status": "Not Installed",
  "Check": "No_Tracker"
 },
 {
  "Site ID Number": 600469,
  "Latitude": 7.60382666666667,
  "Longitude": -1.95717833333333,
  "Site Name": "KENTEN",
  "Ghana Sites.Tracker IMEI": 0,
  "Installation Status": "Not Installed",
  "Check": "No_Tracker"
 },
 {
  "Site ID Number": 600471,
  "Latitude": 9.4106119,
  "Longitude": -0.8250571,
  "Site Name": "TAMALE3",
  "Ghana Sites.Tracker IMEI": 0,
  "Installation Status": "Not Installed",
  "Check": "No_Tracker"
 },
 {
  "Site ID Number": 600473,
  "Latitude": 9.6324969,
  "Longitude": -0.8276515,
  "Site Name": "SAVELUGU",
  "Ghana Sites.Tracker IMEI": 0,
  "Installation Status": "Not Installed",
  "Check": "No_Tracker"
 },
 {
  "Site ID Number": 600474,
  "Latitude": 8.34445,
  "Longitude": -1.56816166666667,
  "Site Name": "DAWADAWA",
  "Ghana Sites.Tracker IMEI": 0,
  "Installation Status": "Not Installed",
  "Check": "No_Tracker"
 },
 {
  "Site ID Number": 600476,
  "Latitude": 7.577975,
  "Longitude": -1.94255166666667,
  "Site Name": "TECHIMAN2",
  "Ghana Sites.Tracker IMEI": 0,
  "Installation Status": "Not Installed",
  "Check": "No_Tracker"
 },
 {
  "Site ID Number": 600477,
  "Latitude": 7.3218855,
  "Longitude": -2.3152537,
  "Site Name": "SUNYANI2",
  "Ghana Sites.Tracker IMEI": 0,
  "Installation Status": "Not Installed",
  "Check": "No_Tracker"
 },
 {
  "Site ID Number": 600479,
  "Latitude": 8.5361333,
  "Longitude": -0.5034083,
  "Site Name": "SALAGA",
  "Ghana Sites.Tracker IMEI": 0,
  "Installation Status": "Not Installed",
  "Check": "No_Tracker"
 },
 {
  "Site ID Number": 600481,
  "Latitude": 10.3593066,
  "Longitude": -0.7997181,
  "Site Name": "WALEWALE",
  "Ghana Sites.Tracker IMEI": 0,
  "Installation Status": "Not Installed",
  "Check": "No_Tracker"
 },
 {
  "Site ID Number": 600484,
  "Latitude": 6.571355,
  "Longitude": -1.66568,
  "Site Name": "BROFOYEDRU",
  "Ghana Sites.Tracker IMEI": 0,
  "Installation Status": "Not Installed",
  "Check": "No_Tracker"
 },
 {
  "Site ID Number": 600485,
  "Latitude": 6.5941768,
  "Longitude": -0.7299299,
  "Site Name": "MPRAESO2",
  "Ghana Sites.Tracker IMEI": 0,
  "Installation Status": "Not Installed",
  "Check": "No_Tracker"
 },
 {
  "Site ID Number": 600486,
  "Latitude": 7.0600774,
  "Longitude": -1.4015632,
  "Site Name": "MAMPONG",
  "Ghana Sites.Tracker IMEI": 0,
  "Installation Status": "Not Installed",
  "Check": "No_Tracker"
 },
 {
  "Site ID Number": 600487,
  "Latitude": 7.16223613,
  "Longitude": -1.74139734,
  "Site Name": "ABOFOR",
  "Ghana Sites.Tracker IMEI": 0,
  "Installation Status": "Not Installed",
  "Check": "No_Tracker"
 },
 {
  "Site ID Number": 600488,
  "Latitude": 10.7044501,
  "Longitude": -1.2815053,
  "Site Name": "SANDEMA",
  "Ghana Sites.Tracker IMEI": 0,
  "Installation Status": "Not Installed",
  "Check": "No_Tracker"
 },
 {
  "Site ID Number": 600489,
  "Latitude": 5.7611853,
  "Longitude": 0.2334028,
  "Site Name": "ANHWIAM",
  "Ghana Sites.Tracker IMEI": 0,
  "Installation Status": "Not Installed",
  "Check": "No_Tracker"
 },
 {
  "Site ID Number": 600490,
  "Latitude": 6.20775666666667,
  "Longitude": -1.66773833333333,
  "Site Name": "OBUASI2",
  "Ghana Sites.Tracker IMEI": 0,
  "Installation Status": "Not Installed",
  "Check": "No_Tracker"
 },
 {
  "Site ID Number": 600492,
  "Latitude": 7.80925333333333,
  "Longitude": -1.80386,
  "Site Name": "NEWPAMDU",
  "Ghana Sites.Tracker IMEI": 0,
  "Installation Status": "Not Installed",
  "Check": "No_Tracker"
 },
 {
  "Site ID Number": 600496,
  "Latitude": 10.6052966666667,
  "Longitude": -0.858271666666667,
  "Site Name": "PWALGU",
  "Ghana Sites.Tracker IMEI": 0,
  "Installation Status": "Not Installed",
  "Check": "No_Tracker"
 },
 {
  "Site ID Number": 600498,
  "Latitude": 6.05822833333333,
  "Longitude": -1.39564833333333,
  "Site Name": "NEWEDUBIAS",
  "Ghana Sites.Tracker IMEI": 0,
  "Installation Status": "Not Installed",
  "Check": "No_Tracker"
 },
 {
  "Site ID Number": 600499,
  "Latitude": 6.65031833333333,
  "Longitude": -1.19115666666667,
  "Site Name": "KONONGO",
  "Ghana Sites.Tracker IMEI": 0,
  "Installation Status": "Not Installed",
  "Check": "No_Tracker"
 },
 {
  "Site ID Number": 600500,
  "Latitude": 6.5762183,
  "Longitude": -0.7616683,
  "Site Name": "MPREASO",
  "Ghana Sites.Tracker IMEI": 0,
  "Installation Status": "Not Installed",
  "Check": "No_Tracker"
 },
 {
  "Site ID Number": 600501,
  "Latitude": 6.18998,
  "Longitude": -1.69029166666667,
  "Site Name": "OBUASI1",
  "Ghana Sites.Tracker IMEI": 0,
  "Installation Status": "Not Installed",
  "Check": "No_Tracker"
 },
 {
  "Site ID Number": 600502,
  "Latitude": 6.3336459,
  "Longitude": -2.2697568,
  "Site Name": "BIBIANI1",
  "Ghana Sites.Tracker IMEI": 0,
  "Installation Status": "Not Installed",
  "Check": "No_Tracker"
 },
 {
  "Site ID Number": 600504,
  "Latitude": 7.0033,
  "Longitude": -2.16373,
  "Site Name": "TEPA",
  "Ghana Sites.Tracker IMEI": 0,
  "Installation Status": "Not Installed",
  "Check": "No_Tracker"
 },
 {
  "Site ID Number": 600505,
  "Latitude": 6.8054674,
  "Longitude": -2.5253482,
  "Site Name": "MIM",
  "Ghana Sites.Tracker IMEI": 0,
  "Installation Status": "Not Installed",
  "Check": "No_Tracker"
 },
 {
  "Site ID Number": 600507,
  "Latitude": 5.90438333333333,
  "Longitude": -0.996551666666667,
  "Site Name": "AKIMSWEDRO",
  "Ghana Sites.Tracker IMEI": 0,
  "Installation Status": "Not Installed",
  "Check": "No_Tracker"
 },
 {
  "Site ID Number": 600508,
  "Latitude": 6.0553159,
  "Longitude": -0.7936099,
  "Site Name": "BAWDUA",
  "Ghana Sites.Tracker IMEI": 0,
  "Installation Status": "Not Installed",
  "Check": "No_Tracker"
 },
 {
  "Site ID Number": 600509,
  "Latitude": 6.711395,
  "Longitude": -1.46489,
  "Site Name": "EJISU",
  "Ghana Sites.Tracker IMEI": 0,
  "Installation Status": "Not Installed",
  "Check": "No_Tracker"
 },
 {
  "Site ID Number": 600511,
  "Latitude": 5.93138,
  "Longitude": -0.99286,
  "Site Name": "AKIMODA",
  "Ghana Sites.Tracker IMEI": 0,
  "Installation Status": "Not Installed",
  "Check": "No_Tracker"
 },
 {
  "Site ID Number": 600514,
  "Latitude": 6.8093444,
  "Longitude": -2.5366156,
  "Site Name": "GOASO",
  "Ghana Sites.Tracker IMEI": 0,
  "Installation Status": "Not Installed",
  "Check": "No_Tracker"
 },
 {
  "Site ID Number": 600515,
  "Latitude": 7.0798737,
  "Longitude": -2.023408,
  "Site Name": "BECHEM",
  "Ghana Sites.Tracker IMEI": 0,
  "Installation Status": "Not Installed",
  "Check": "No_Tracker"
 },
 {
  "Site ID Number": 600517,
  "Latitude": 8.03665833333333,
  "Longitude": -1.666775,
  "Site Name": "KINTAMPO",
  "Ghana Sites.Tracker IMEI": 0,
  "Installation Status": "Not Installed",
  "Check": "No_Tracker"
 },
 {
  "Site ID Number": 600518,
  "Latitude": 10.9733531,
  "Longitude": -1.1051333,
  "Site Name": "PAGA",
  "Ghana Sites.Tracker IMEI": 0,
  "Installation Status": "Not Installed",
  "Check": "No_Tracker"
 },
 {
  "Site ID Number": 600519,
  "Latitude": 7.34686833333333,
  "Longitude": -2.36160833333333,
  "Site Name": "CHIRAA",
  "Ghana Sites.Tracker IMEI": 0,
  "Installation Status": "Not Installed",
  "Check": "No_Tracker"
 },
 {
  "Site ID Number": 600520,
  "Latitude": 5.8732033,
  "Longitude": -0.6674283,
  "Site Name": "ASAMANKESE",
  "Ghana Sites.Tracker IMEI": 0,
  "Installation Status": "Not Installed",
  "Check": "No_Tracker"
 },
 {
  "Site ID Number": 600521,
  "Latitude": 6.905325,
  "Longitude": -1.27394833333333,
  "Site Name": "KUMAWU",
  "Ghana Sites.Tracker IMEI": 0,
  "Installation Status": "Not Installed",
  "Check": "No_Tracker"
 },
 {
  "Site ID Number": 600522,
  "Latitude": 6.93343666666667,
  "Longitude": -1.48862333333333,
  "Site Name": "AGONA",
  "Ghana Sites.Tracker IMEI": 0,
  "Installation Status": "Not Installed",
  "Check": "No_Tracker"
 },
 {
  "Site ID Number": 600524,
  "Latitude": 6.24657988,
  "Longitude": -2.28785121,
  "Site Name": "SEFIAWASO",
  "Ghana Sites.Tracker IMEI": 0,
  "Installation Status": "Not Installed",
  "Check": "No_Tracker"
 },
 {
  "Site ID Number": 600525,
  "Latitude": 7.350165,
  "Longitude": -1.37146833333333,
  "Site Name": "EJURA",
  "Ghana Sites.Tracker IMEI": 0,
  "Installation Status": "Not Installed",
  "Check": "No_Tracker"
 },
 {
  "Site ID Number": 600526,
  "Latitude": 6.6395507,
  "Longitude": -0.7433589,
  "Site Name": "NKWATIA",
  "Ghana Sites.Tracker IMEI": 0,
  "Installation Status": "Not Installed",
  "Check": "No_Tracker"
 },
 {
  "Site ID Number": 600528,
  "Latitude": 8.98104333333333,
  "Longitude": -1.357795,
  "Site Name": "DOMEABRA",
  "Ghana Sites.Tracker IMEI": 0,
  "Installation Status": "Not Installed",
  "Check": "No_Tracker"
 },
 {
  "Site ID Number": 600529,
  "Latitude": 8.58651333333333,
  "Longitude": -1.55680666666667,
  "Site Name": "PORTO",
  "Ghana Sites.Tracker IMEI": 0,
  "Installation Status": "Not Installed",
  "Check": "No_Tracker"
 },
 {
  "Site ID Number": 600530,
  "Latitude": 9.208455,
  "Longitude": -1.06649166666667,
  "Site Name": "KUSAWGU",
  "Ghana Sites.Tracker IMEI": 0,
  "Installation Status": "Not Installed",
  "Check": "No_Tracker"
 },
 {
  "Site ID Number": 600533,
  "Latitude": 6.3825381,
  "Longitude": -0.3787572,
  "Site Name": "BEGORO",
  "Ghana Sites.Tracker IMEI": 0,
  "Installation Status": "Not Installed",
  "Check": "No_Tracker"
 },
 {
  "Site ID Number": 600534,
  "Latitude": 7.4597517,
  "Longitude": -2.59799,
  "Site Name": "BEREKUM",
  "Ghana Sites.Tracker IMEI": 0,
  "Installation Status": "Not Installed",
  "Check": "No_Tracker"
 },
 {
  "Site ID Number": 600535,
  "Latitude": 7.2756567,
  "Longitude": -2.8585683,
  "Site Name": "DORMA",
  "Ghana Sites.Tracker IMEI": 0,
  "Installation Status": "Not Installed",
  "Check": "No_Tracker"
 },
 {
  "Site ID Number": 600537,
  "Latitude": 6.46001,
  "Longitude": -2.32000666666667,
  "Site Name": "BIBIANI3",
  "Ghana Sites.Tracker IMEI": 0,
  "Installation Status": "Not Installed",
  "Check": "No_Tracker"
 },
 {
  "Site ID Number": 600539,
  "Latitude": 6.93420834,
  "Longitude": -1.67550874,
  "Site Name": "OFFINSO",
  "Ghana Sites.Tracker IMEI": 0,
  "Installation Status": "Not Installed",
  "Check": "No_Tracker"
 },
 {
  "Site ID Number": 600540,
  "Latitude": 7.74475666666667,
  "Longitude": -0.97877,
  "Site Name": "ATEBUBU",
  "Ghana Sites.Tracker IMEI": 0,
  "Installation Status": "Not Installed",
  "Check": "No_Tracker"
 },
 {
  "Site ID Number": 600541,
  "Latitude": 8.22046166666667,
  "Longitude": -0.67307,
  "Site Name": "YEJI",
  "Ghana Sites.Tracker IMEI": 0,
  "Installation Status": "Not Installed",
  "Check": "No_Tracker"
 },
 {
  "Site ID Number": 600544,
  "Latitude": 6.981325,
  "Longitude": -1.95779666666667,
  "Site Name": "POKUKROM",
  "Ghana Sites.Tracker IMEI": 0,
  "Installation Status": "Not Installed",
  "Check": "No_Tracker"
 },
 {
  "Site ID Number": 600545,
  "Latitude": 6.46222666666667,
  "Longitude": -1.57418666666667,
  "Site Name": "BEKWAI",
  "Ghana Sites.Tracker IMEI": 0,
  "Installation Status": "Not Installed",
  "Check": "No_Tracker"
 },
 {
  "Site ID Number": 600546,
  "Latitude": 5.7683217,
  "Longitude": -0.7700617,
  "Site Name": "AKIMAKROSO",
  "Ghana Sites.Tracker IMEI": 0,
  "Installation Status": "Not Installed",
  "Check": "No_Tracker"
 },
 {
  "Site ID Number": 600552,
  "Latitude": 10.6453466666667,
  "Longitude": -2.887795,
  "Site Name": "LAWRA",
  "Ghana Sites.Tracker IMEI": 0,
  "Installation Status": "Not Installed",
  "Check": "No_Tracker"
 },
 {
  "Site ID Number": 600554,
  "Latitude": 10.3761716666667,
  "Longitude": -2.66300166666667,
  "Site Name": "NADOWLI",
  "Ghana Sites.Tracker IMEI": 0,
  "Installation Status": "Not Installed",
  "Check": "No_Tracker"
 },
 {
  "Site ID Number": 600556,
  "Latitude": 10.9507477,
  "Longitude": -0.5016943,
  "Site Name": "ZEBILLA",
  "Ghana Sites.Tracker IMEI": 0,
  "Installation Status": "Not Installed",
  "Check": "No_Tracker"
 },
 {
  "Site ID Number": 600566,
  "Latitude": 5.5829117,
  "Longitude": -0.9864433,
  "Site Name": "ASIKUMACR",
  "Ghana Sites.Tracker IMEI": 0,
  "Installation Status": "Not Installed",
  "Check": "No_Tracker"
 },
 {
  "Site ID Number": 600567,
  "Latitude": 5.695085,
  "Longitude": -1.28244,
  "Site Name": "ASSINFOSU",
  "Ghana Sites.Tracker IMEI": 0,
  "Installation Status": "Not Installed",
  "Check": "No_Tracker"
 },
 {
  "Site ID Number": 600568,
  "Latitude": 5.8130048,
  "Longitude": -2.82619656,
  "Site Name": "ENCHI",
  "Ghana Sites.Tracker IMEI": 0,
  "Installation Status": "Not Installed",
  "Check": "No_Tracker"
 },
 {
  "Site ID Number": 600570,
  "Latitude": 7.5874501,
  "Longitude": -2.7860121,
  "Site Name": "NEWDROBO",
  "Ghana Sites.Tracker IMEI": 0,
  "Installation Status": "Not Installed",
  "Check": "No_Tracker"
 },
 {
  "Site ID Number": 600571,
  "Latitude": 10.8976678736508,
  "Longitude": -1.09216106124222,
  "Site Name": "NAVRONGO1",
  "Ghana Sites.Tracker IMEI": 0,
  "Installation Status": "Not Installed",
  "Check": "No_Tracker"
 },
 {
  "Site ID Number": 600572,
  "Latitude": 11.0601338,
  "Longitude": -0.2279618,
  "Site Name": "BAWKU1",
  "Ghana Sites.Tracker IMEI": 0,
  "Installation Status": "Not Installed",
  "Check": "No_Tracker"
 },
 {
  "Site ID Number": 600573,
  "Latitude": 10.8009586,
  "Longitude": -0.8636708,
  "Site Name": "BOLGA1",
  "Ghana Sites.Tracker IMEI": 0,
  "Installation Status": "Not Installed",
  "Check": "No_Tracker"
 },
 {
  "Site ID Number": 600574,
  "Latitude": 10.7727083333333,
  "Longitude": -0.848815,
  "Site Name": "BOLGATNGA2",
  "Ghana Sites.Tracker IMEI": 0,
  "Installation Status": "Not Installed",
  "Check": "No_Tracker"
 },
 {
  "Site ID Number": 600575,
  "Latitude": 10.8825363,
  "Longitude": -1.0832904,
  "Site Name": "NAVRONGO2",
  "Ghana Sites.Tracker IMEI": 0,
  "Installation Status": "Not Installed",
  "Check": "No_Tracker"
 },
 {
  "Site ID Number": 600577,
  "Latitude": 9.45482333333333,
  "Longitude": -0.00694666666666667,
  "Site Name": "YENDI",
  "Ghana Sites.Tracker IMEI": 0,
  "Installation Status": "Not Installed",
  "Check": "No_Tracker"
 },
 {
  "Site ID Number": 600578,
  "Latitude": 9.5611838,
  "Longitude": -0.953317,
  "Site Name": "KUMBUGU",
  "Ghana Sites.Tracker IMEI": 0,
  "Installation Status": "Not Installed",
  "Check": "No_Tracker"
 },
 {
  "Site ID Number": 600579,
  "Latitude": 8.86725,
  "Longitude": 0.04808,
  "Site Name": "BIMBILLA",
  "Ghana Sites.Tracker IMEI": 0,
  "Installation Status": "Not Installed",
  "Check": "No_Tracker"
 },
 {
  "Site ID Number": 600580,
  "Latitude": 9.08533666666667,
  "Longitude": -1.821385,
  "Site Name": "DAMANGO",
  "Ghana Sites.Tracker IMEI": 0,
  "Installation Status": "Not Installed",
  "Check": "No_Tracker"
 },
 {
  "Site ID Number": 600585,
  "Latitude": 10.8733433333333,
  "Longitude": -1.98757,
  "Site Name": "TUMU",
  "Ghana Sites.Tracker IMEI": 0,
  "Installation Status": "Not Installed",
  "Check": "No_Tracker"
 },
 {
  "Site ID Number": 600589,
  "Latitude": 5.8009183,
  "Longitude": -0.3463117,
  "Site Name": "NSAWAM",
  "Ghana Sites.Tracker IMEI": 0,
  "Installation Status": "Not Installed",
  "Check": "No_Tracker"
 },
 {
  "Site ID Number": 600594,
  "Latitude": 4.9363705,
  "Longitude": -1.7150634,
  "Site Name": "SEKONDI2",
  "Ghana Sites.Tracker IMEI": 0,
  "Installation Status": "Not Installed",
  "Check": "No_Tracker"
 },
 {
  "Site ID Number": 600595,
  "Latitude": 4.95359973,
  "Longitude": -1.71153464,
  "Site Name": "SEKONDI3",
  "Ghana Sites.Tracker IMEI": 0,
  "Installation Status": "Not Installed",
  "Check": "No_Tracker"
 },
 {
  "Site ID Number": 600598,
  "Latitude": 5.3029148,
  "Longitude": -2.0080356,
  "Site Name": "TARKWA1",
  "Ghana Sites.Tracker IMEI": 0,
  "Installation Status": "Not Installed",
  "Check": "No_Tracker"
 },
 {
  "Site ID Number": 600601,
  "Latitude": 5.95316792,
  "Longitude": -1.7735783,
  "Site Name": "DUNKWA",
  "Ghana Sites.Tracker IMEI": 0,
  "Installation Status": "Not Installed",
  "Check": "No_Tracker"
 },
 {
  "Site ID Number": 600602,
  "Latitude": 4.879065,
  "Longitude": -2.21993666666667,
  "Site Name": "AXIM",
  "Ghana Sites.Tracker IMEI": 0,
  "Installation Status": "Not Installed",
  "Check": "No_Tracker"
 },
 {
  "Site ID Number": 600605,
  "Latitude": 5.70965322822996,
  "Longitude": -0.298431424442393,
  "Site Name": "AMASAMAN",
  "Ghana Sites.Tracker IMEI": 0,
  "Installation Status": "Not Installed",
  "Check": "No_Tracker"
 },
 {
  "Site ID Number": 600608,
  "Latitude": 5.55460563183156,
  "Longitude": -1.5347665767431,
  "Site Name": "TWIFOPRASO",
  "Ghana Sites.Tracker IMEI": 0,
  "Installation Status": "Not Installed",
  "Check": "No_Tracker"
 },
 {
  "Site ID Number": 600609,
  "Latitude": 5.5405927,
  "Longitude": -0.4291954,
  "Site Name": "KASWA",
  "Ghana Sites.Tracker IMEI": 0,
  "Installation Status": "Not Installed",
  "Check": "No_Tracker"
 },
 {
  "Site ID Number": 600610,
  "Latitude": 5.382689,
  "Longitude": -0.6430428,
  "Site Name": "WINNEBA1",
  "Ghana Sites.Tracker IMEI": 0,
  "Installation Status": "Not Installed",
  "Check": "No_Tracker"
 },
 {
  "Site ID Number": 600611,
  "Latitude": 5.352615,
  "Longitude": -0.61652,
  "Site Name": "WINNEBA2",
  "Ghana Sites.Tracker IMEI": 0,
  "Installation Status": "Not Installed",
  "Check": "No_Tracker"
 },
 {
  "Site ID Number": 600614,
  "Latitude": 5.204835,
  "Longitude": -1.052265,
  "Site Name": "SALTPOND",
  "Ghana Sites.Tracker IMEI": 0,
  "Installation Status": "Not Installed",
  "Check": "No_Tracker"
 },
 {
  "Site ID Number": 600616,
  "Latitude": 10.0842016666667,
  "Longitude": -2.51350333333333,
  "Site Name": "WASTRIP",
  "Ghana Sites.Tracker IMEI": 0,
  "Installation Status": "Not Installed",
  "Check": "No_Tracker"
 },
 {
  "Site ID Number": 600619,
  "Latitude": 5.1033917,
  "Longitude": -1.389395,
  "Site Name": "ELMINA",
  "Ghana Sites.Tracker IMEI": 0,
  "Installation Status": "Not Installed",
  "Check": "No_Tracker"
 },
 {
  "Site ID Number": 600620,
  "Latitude": 5.0884417,
  "Longitude": -1.50435,
  "Site Name": "KISSI",
  "Ghana Sites.Tracker IMEI": 0,
  "Installation Status": "Not Installed",
  "Check": "No_Tracker"
 },
 {
  "Site ID Number": 600621,
  "Latitude": 5.00710986,
  "Longitude": -1.66871292,
  "Site Name": "ITUMA",
  "Ghana Sites.Tracker IMEI": 0,
  "Installation Status": "Not Installed",
  "Check": "No_Tracker"
 },
 {
  "Site ID Number": 600624,
  "Latitude": 6.09176,
  "Longitude": -0.2586933,
  "Site Name": "KOFORIDUA1",
  "Ghana Sites.Tracker IMEI": 0,
  "Installation Status": "Not Installed",
  "Check": "No_Tracker"
 },
 {
  "Site ID Number": 600626,
  "Latitude": 5.7502012,
  "Longitude": -0.0577449,
  "Site Name": "ASHMANSWISS",
  "Ghana Sites.Tracker IMEI": 0,
  "Installation Status": "Not Installed",
  "Check": "No_Tracker"
 },
 {
  "Site ID Number": 600634,
  "Latitude": 6.0496067,
  "Longitude": -0.4606233,
  "Site Name": "SUHUM",
  "Ghana Sites.Tracker IMEI": 0,
  "Installation Status": "Not Installed",
  "Check": "No_Tracker"
 },
 {
  "Site ID Number": 600639,
  "Latitude": 5.7934854,
  "Longitude": 0.6223452,
  "Site Name": "BIGADA",
  "Ghana Sites.Tracker IMEI": 0,
  "Installation Status": "Not Installed",
  "Check": "No_Tracker"
 },
 {
  "Site ID Number": 600640,
  "Latitude": 5.7919083,
  "Longitude": 0.89784,
  "Site Name": "ANLOGA",
  "Ghana Sites.Tracker IMEI": 0,
  "Installation Status": "Not Installed",
  "Check": "No_Tracker"
 },
 {
  "Site ID Number": 600641,
  "Latitude": 6.120455,
  "Longitude": -0.0134483,
  "Site Name": "SOMANYA",
  "Ghana Sites.Tracker IMEI": 0,
  "Installation Status": "Not Installed",
  "Check": "No_Tracker"
 },
 {
  "Site ID Number": 600642,
  "Latitude": 5.8649044,
  "Longitude": 0.2895362,
  "Site Name": "DAWA",
  "Ghana Sites.Tracker IMEI": 0,
  "Installation Status": "Not Installed",
  "Check": "No_Tracker"
 },
 {
  "Site ID Number": 600644,
  "Latitude": 6.259925,
  "Longitude": -0.50348,
  "Site Name": "ASIAKWA",
  "Ghana Sites.Tracker IMEI": 0,
  "Installation Status": "Not Installed",
  "Check": "No_Tracker"
 },
 {
  "Site ID Number": 600645,
  "Latitude": 6.2264433,
  "Longitude": -0.3613983,
  "Site Name": "NEWTAFO",
  "Ghana Sites.Tracker IMEI": 0,
  "Installation Status": "Not Installed",
  "Check": "No_Tracker"
 },
 {
  "Site ID Number": 600646,
  "Latitude": 6.2535993,
  "Longitude": 0.1390487,
  "Site Name": "JUAPONG",
  "Ghana Sites.Tracker IMEI": 0,
  "Installation Status": "Not Installed",
  "Check": "No_Tracker"
 },
 {
  "Site ID Number": 600650,
  "Latitude": 7.9507617,
  "Longitude": -2.6998867,
  "Site Name": "SAMPA",
  "Ghana Sites.Tracker IMEI": 0,
  "Installation Status": "Not Installed",
  "Check": "No_Tracker"
 },
 {
  "Site ID Number": 600652,
  "Latitude": 6.154995,
  "Longitude": 0.0331383,
  "Site Name": "AGOMENYA",
  "Ghana Sites.Tracker IMEI": 0,
  "Installation Status": "Not Installed",
  "Check": "No_Tracker"
 },
 {
  "Site ID Number": 600653,
  "Latitude": 5.2081042,
  "Longitude": -0.936788,
  "Site Name": "NARKWA",
  "Ghana Sites.Tracker IMEI": 0,
  "Installation Status": "Not Installed",
  "Check": "No_Tracker"
 },
 {
  "Site ID Number": 600659,
  "Latitude": 6.0892549,
  "Longitude": -0.24192,
  "Site Name": "KOFORIDUA2",
  "Ghana Sites.Tracker IMEI": 0,
  "Installation Status": "Not Installed",
  "Check": "No_Tracker"
 },
 {
  "Site ID Number": 600660,
  "Latitude": 7.39422109,
  "Longitude": -1.950875,
  "Site Name": "AKOMADAN",
  "Ghana Sites.Tracker IMEI": 0,
  "Installation Status": "Not Installed",
  "Check": "No_Tracker"
 },
 {
  "Site ID Number": 600661,
  "Latitude": 5.395945,
  "Longitude": -0.4962883,
  "Site Name": "SENYABREKU1",
  "Ghana Sites.Tracker IMEI": 0,
  "Installation Status": "Not Installed",
  "Check": "No_Tracker"
 },
 {
  "Site ID Number": 600663,
  "Latitude": 5.866085,
  "Longitude": -1.33967833333333,
  "Site Name": "ASSINBREKU",
  "Ghana Sites.Tracker IMEI": 0,
  "Installation Status": "Not Installed",
  "Check": "No_Tracker"
 },
 {
  "Site ID Number": 600665,
  "Latitude": 6.109345,
  "Longitude": -0.261841666666667,
  "Site Name": "KOFORIDUA3",
  "Ghana Sites.Tracker IMEI": 0,
  "Installation Status": "Not Installed",
  "Check": "No_Tracker"
 },
 {
  "Site ID Number": 600669,
  "Latitude": 6.07214972376823,
  "Longitude": 0.405311118811369,
  "Site Name": "BATOR",
  "Ghana Sites.Tracker IMEI": 0,
  "Installation Status": "Not Installed",
  "Check": "No_Tracker"
 },
 {
  "Site ID Number": 600671,
  "Latitude": 5.94231666666667,
  "Longitude": -0.119778333333333,
  "Site Name": "MAMFE",
  "Ghana Sites.Tracker IMEI": 0,
  "Installation Status": "Not Installed",
  "Check": "No_Tracker"
 },
 {
  "Site ID Number": 600675,
  "Latitude": 5.113812,
  "Longitude": -1.2639009,
  "Site Name": "CAPECOAST.4",
  "Ghana Sites.Tracker IMEI": 0,
  "Installation Status": "Not Installed",
  "Check": "No_Tracker"
 },
 {
  "Site ID Number": 600680,
  "Latitude": 6.11807833333333,
  "Longitude": 1.185995,
  "Site Name": "AFLAO2",
  "Ghana Sites.Tracker IMEI": 0,
  "Installation Status": "Not Installed",
  "Check": "No_Tracker"
 },
 {
  "Site ID Number": 600681,
  "Latitude": 6.1850066,
  "Longitude": -0.3711397,
  "Site Name": "KUKURANTUMI",
  "Ghana Sites.Tracker IMEI": 0,
  "Installation Status": "Not Installed",
  "Check": "No_Tracker"
 },
 {
  "Site ID Number": 600682,
  "Latitude": 6.1054666,
  "Longitude": -0.8370302,
  "Site Name": "KADE",
  "Ghana Sites.Tracker IMEI": 0,
  "Installation Status": "Not Installed",
  "Check": "No_Tracker"
 },
 {
  "Site ID Number": 600683,
  "Latitude": 6.26973,
  "Longitude": -0.876505,
  "Site Name": "ASUOM",
  "Ghana Sites.Tracker IMEI": 0,
  "Installation Status": "Not Installed",
  "Check": "No_Tracker"
 },
 {
  "Site ID Number": 600684,
  "Latitude": 5.827415,
  "Longitude": -0.3541417,
  "Site Name": "ADOAGYIRI",
  "Ghana Sites.Tracker IMEI": 0,
  "Installation Status": "Not Installed",
  "Check": "No_Tracker"
 },
 {
  "Site ID Number": 600686,
  "Latitude": 5.918695,
  "Longitude": -0.92993,
  "Site Name": "ASENE",
  "Ghana Sites.Tracker IMEI": 0,
  "Installation Status": "Not Installed",
  "Check": "No_Tracker"
 },
 {
  "Site ID Number": 600687,
  "Latitude": 6.07892166666667,
  "Longitude": -0.262083333333333,
  "Site Name": "KOFORIDUA4",
  "Ghana Sites.Tracker IMEI": 0,
  "Installation Status": "Not Installed",
  "Check": "No_Tracker"
 },
 {
  "Site ID Number": 600688,
  "Latitude": 6.1132532,
  "Longitude": -0.2766066,
  "Site Name": "ASOKORE",
  "Ghana Sites.Tracker IMEI": 0,
  "Installation Status": "Not Installed",
  "Check": "No_Tracker"
 },
 {
  "Site ID Number": 600689,
  "Latitude": 6.0332133,
  "Longitude": -0.812285,
  "Site Name": "AKWATIA",
  "Ghana Sites.Tracker IMEI": 0,
  "Installation Status": "Not Installed",
  "Check": "No_Tracker"
 },
 {
  "Site ID Number": 600691,
  "Latitude": 6.343705,
  "Longitude": -0.997203333333333,
  "Site Name": "NEW-ABIRIM",
  "Ghana Sites.Tracker IMEI": 0,
  "Installation Status": "Not Installed",
  "Check": "No_Tracker"
 },
 {
  "Site ID Number": 600698,
  "Latitude": 5.5207935,
  "Longitude": -0.4795268,
  "Site Name": "BUDUBURAM",
  "Ghana Sites.Tracker IMEI": 0,
  "Installation Status": "Not Installed",
  "Check": "No_Tracker"
 },
 {
  "Site ID Number": 600699,
  "Latitude": 5.13631,
  "Longitude": -1.2128817,
  "Site Name": "MOREE",
  "Ghana Sites.Tracker IMEI": 0,
  "Installation Status": "Not Installed",
  "Check": "No_Tracker"
 },
 {
  "Site ID Number": 600701,
  "Latitude": 5.61189,
  "Longitude": -0.7974467,
  "Site Name": "NYAKROM1",
  "Ghana Sites.Tracker IMEI": 0,
  "Installation Status": "Not Installed",
  "Check": "No_Tracker"
 },
 {
  "Site ID Number": 600702,
  "Latitude": 5.1171367,
  "Longitude": -1.28335,
  "Site Name": "KOMENDA",
  "Ghana Sites.Tracker IMEI": 0,
  "Installation Status": "Not Installed",
  "Check": "No_Tracker"
 },
 {
  "Site ID Number": 600703,
  "Latitude": 5.4579427,
  "Longitude": -0.9764545,
  "Site Name": "BESEASE",
  "Ghana Sites.Tracker IMEI": 0,
  "Installation Status": "Not Installed",
  "Check": "No_Tracker"
 },
 {
  "Site ID Number": 600705,
  "Latitude": 5.6006733,
  "Longitude": -0.63309,
  "Site Name": "KWANYAKO",
  "Ghana Sites.Tracker IMEI": 0,
  "Installation Status": "Not Installed",
  "Check": "No_Tracker"
 },
 {
  "Site ID Number": 600706,
  "Latitude": 5.2621533,
  "Longitude": -0.765095,
  "Site Name": "MUMFORD",
  "Ghana Sites.Tracker IMEI": 0,
  "Installation Status": "Not Installed",
  "Check": "No_Tracker"
 },
 {
  "Site ID Number": 600707,
  "Latitude": 5.6317833,
  "Longitude": -0.8861733,
  "Site Name": "AGONAODOBE",
  "Ghana Sites.Tracker IMEI": 0,
  "Installation Status": "Not Installed",
  "Check": "No_Tracker"
 },
 {
  "Site ID Number": 600708,
  "Latitude": 6.119506,
  "Longitude": -3.0378517,
  "Site Name": "DADIESO",
  "Ghana Sites.Tracker IMEI": 0,
  "Installation Status": "Not Installed",
  "Check": "No_Tracker"
 },
 {
  "Site ID Number": 600710,
  "Latitude": 6.6597803,
  "Longitude": -3.2344491,
  "Site Name": "OSEIKOJO",
  "Ghana Sites.Tracker IMEI": 0,
  "Installation Status": "Not Installed",
  "Check": "No_Tracker"
 },
 {
  "Site ID Number": 600712,
  "Latitude": 6.193635,
  "Longitude": -2.3164,
  "Site Name": "SEFIBEKWAI",
  "Ghana Sites.Tracker IMEI": 0,
  "Installation Status": "Not Installed",
  "Check": "No_Tracker"
 },
 {
  "Site ID Number": 600714,
  "Latitude": 5.046794,
  "Longitude": -2.4680526,
  "Site Name": "AIYINASEH52.2V",
  "Ghana Sites.Tracker IMEI": 0,
  "Installation Status": "Not Installed",
  "Check": "No_Tracker"
 },
 {
  "Site ID Number": 600716,
  "Latitude": 4.8970326,
  "Longitude": -1.8262533,
  "Site Name": "APOWA",
  "Ghana Sites.Tracker IMEI": 0,
  "Installation Status": "Not Installed",
  "Check": "No_Tracker"
 },
 {
  "Site ID Number": 600718,
  "Latitude": 4.8905611,
  "Longitude": -1.9631011,
  "Site Name": "AGNAKWANTA",
  "Ghana Sites.Tracker IMEI": 0,
  "Installation Status": "Not Installed",
  "Check": "No_Tracker"
 },
 {
  "Site ID Number": 600719,
  "Latitude": 4.810553,
  "Longitude": -1.9424225,
  "Site Name": "BUSUALSH52.2V",
  "Ghana Sites.Tracker IMEI": 0,
  "Installation Status": "Not Installed",
  "Check": "No_Tracker"
 },
 {
  "Site ID Number": 600720,
  "Latitude": 6.343477,
  "Longitude": -2.8282244,
  "Site Name": "JUABOSO",
  "Ghana Sites.Tracker IMEI": 0,
  "Installation Status": "Not Installed",
  "Check": "No_Tracker"
 },
 {
  "Site ID Number": 600721,
  "Latitude": 5.437185,
  "Longitude": -2.1465317,
  "Site Name": "PRESTIA2",
  "Ghana Sites.Tracker IMEI": 0,
  "Installation Status": "Not Installed",
  "Check": "No_Tracker"
 },
 {
  "Site ID Number": 600723,
  "Latitude": 5.1103162,
  "Longitude": -1.2927533,
  "Site Name": "CAPEVARS2",
  "Ghana Sites.Tracker IMEI": 0,
  "Installation Status": "Not Installed",
  "Check": "No_Tracker"
 },
 {
  "Site ID Number": 600726,
  "Latitude": 6.1573917,
  "Longitude": 0.0583583,
  "Site Name": "KPONG1",
  "Ghana Sites.Tracker IMEI": 0,
  "Installation Status": "Not Installed",
  "Check": "No_Tracker"
 },
 {
  "Site ID Number": 600729,
  "Latitude": 6.6079782,
  "Longitude": 0.4731879,
  "Site Name": "HO2",
  "Ghana Sites.Tracker IMEI": 0,
  "Installation Status": "Not Installed",
  "Check": "No_Tracker"
 },
 {
  "Site ID Number": 600732,
  "Latitude": 7.8112601,
  "Longitude": 0.5663609,
  "Site Name": "PAMPAWIEH53.5V",
  "Ghana Sites.Tracker IMEI": 0,
  "Installation Status": "Not Installed",
  "Check": "No_Tracker"
 },
 {
  "Site ID Number": 600733,
  "Latitude": 7.8389282,
  "Longitude": 0.30884,
  "Site Name": "DORMABIN",
  "Ghana Sites.Tracker IMEI": 0,
  "Installation Status": "Not Installed",
  "Check": "No_Tracker"
 },
 {
  "Site ID Number": 600735,
  "Latitude": 5.1405845,
  "Longitude": -1.283988,
  "Site Name": "KAKUMDO",
  "Ghana Sites.Tracker IMEI": 0,
  "Installation Status": "Not Installed",
  "Check": "No_Tracker"
 },
 {
  "Site ID Number": 600736,
  "Latitude": 5.1868233,
  "Longitude": -1.43068,
  "Site Name": "ABREWAGONALS",
  "Ghana Sites.Tracker IMEI": 0,
  "Installation Status": "Not Installed",
  "Check": "No_Tracker"
 },
 {
  "Site ID Number": 600737,
  "Latitude": 5.1492083,
  "Longitude": -1.2748333,
  "Site Name": "ABURACPOLY",
  "Ghana Sites.Tracker IMEI": 0,
  "Installation Status": "Not Installed",
  "Check": "No_Tracker"
 },
 {
  "Site ID Number": 600738,
  "Latitude": 5.55471940184809,
  "Longitude": -1.54196853071695,
  "Site Name": "TWIFOHEMAN",
  "Ghana Sites.Tracker IMEI": 0,
  "Installation Status": "Not Installed",
  "Check": "No_Tracker"
 },
 {
  "Site ID Number": 600739,
  "Latitude": 5.77400166666667,
  "Longitude": -1.24524666666667,
  "Site Name": "ASSINAKPON",
  "Ghana Sites.Tracker IMEI": 0,
  "Installation Status": "Not Installed",
  "Check": "No_Tracker"
 },
 {
  "Site ID Number": 600740,
  "Latitude": 5.5576877,
  "Longitude": -0.8530053,
  "Site Name": "BOBIKUMA",
  "Ghana Sites.Tracker IMEI": 0,
  "Installation Status": "Not Installed",
  "Check": "No_Tracker"
 },
 {
  "Site ID Number": 600743,
  "Latitude": 6.631985,
  "Longitude": -1.65123166666667,
  "Site Name": "KOKOBEN",
  "Ghana Sites.Tracker IMEI": 0,
  "Installation Status": "Not Installed",
  "Check": "No_Tracker"
 },
 {
  "Site ID Number": 600744,
  "Latitude": 9.2080123,
  "Longitude": -0.5912114,
  "Site Name": "CHANBULUGU",
  "Ghana Sites.Tracker IMEI": 0,
  "Installation Status": "Not Installed",
  "Check": "No_Tracker"
 },
 {
  "Site ID Number": 600745,
  "Latitude": 6.89663333333333,
  "Longitude": -1.25522166666667,
  "Site Name": "BODOMASI",
  "Ghana Sites.Tracker IMEI": 0,
  "Installation Status": "Not Installed",
  "Check": "No_Tracker"
 },
 {
  "Site ID Number": 600747,
  "Latitude": 6.756175,
  "Longitude": -1.60173833333333,
  "Site Name": "AHWIAA",
  "Ghana Sites.Tracker IMEI": 0,
  "Installation Status": "Not Installed",
  "Check": "No_Tracker"
 },
 {
  "Site ID Number": 600748,
  "Latitude": 7.04772333333333,
  "Longitude": -1.52215666666667,
  "Site Name": "WIAMOASE",
  "Ghana Sites.Tracker IMEI": 0,
  "Installation Status": "Not Installed",
  "Check": "No_Tracker"
 },
 {
  "Site ID Number": 600749,
  "Latitude": 7.30622833333333,
  "Longitude": -1.56669833333333,
  "Site Name": "SEKODUMASI",
  "Ghana Sites.Tracker IMEI": 0,
  "Installation Status": "Not Installed",
  "Check": "No_Tracker"
 },
 {
  "Site ID Number": 600751,
  "Latitude": 6.76986,
  "Longitude": -1.61028333333333,
  "Site Name": "ATIMATIM",
  "Ghana Sites.Tracker IMEI": 0,
  "Installation Status": "Not Installed",
  "Check": "No_Tracker"
 },
 {
  "Site ID Number": 600752,
  "Latitude": 6.59329166666667,
  "Longitude": -2.22075166666667,
  "Site Name": "NYINAHENE",
  "Ghana Sites.Tracker IMEI": 0,
  "Installation Status": "Not Installed",
  "Check": "No_Tracker"
 },
 {
  "Site ID Number": 600753,
  "Latitude": 6.571765,
  "Longitude": -1.52719666666667,
  "Site Name": "JASHIE",
  "Ghana Sites.Tracker IMEI": 0,
  "Installation Status": "Not Installed",
  "Check": "No_Tracker"
 },
 {
  "Site ID Number": 600758,
  "Latitude": 6.19916166666667,
  "Longitude": -1.65057333333333,
  "Site Name": "OBUSAI3",
  "Ghana Sites.Tracker IMEI": 0,
  "Installation Status": "Not Installed",
  "Check": "No_Tracker"
 },
 {
  "Site ID Number": 600759,
  "Latitude": 6.721752,
  "Longitude": -1.4719769,
  "Site Name": "EJISU2",
  "Ghana Sites.Tracker IMEI": 0,
  "Installation Status": "Not Installed",
  "Check": "No_Tracker"
 },
 {
  "Site ID Number": 600761,
  "Latitude": 7.1719699,
  "Longitude": -2.093425,
  "Site Name": "DUANKWANTAH52.5V",
  "Ghana Sites.Tracker IMEI": 0,
  "Installation Status": "Not Installed",
  "Check": "No_Tracker"
 },
 {
  "Site ID Number": 600762,
  "Latitude": 7.34021166666667,
  "Longitude": -2.348805,
  "Site Name": "NSUATRE",
  "Ghana Sites.Tracker IMEI": 0,
  "Installation Status": "Not Installed",
  "Check": "No_Tracker"
 },
 {
  "Site ID Number": 600763,
  "Latitude": 7.2999683,
  "Longitude": -2.702115,
  "Site Name": "WAMFIELS",
  "Ghana Sites.Tracker IMEI": 0,
  "Installation Status": "Not Installed",
  "Check": "No_Tracker"
 },
 {
  "Site ID Number": 600764,
  "Latitude": 7.640485,
  "Longitude": -1.90596833333333,
  "Site Name": "TUOBODOM",
  "Ghana Sites.Tracker IMEI": 0,
  "Installation Status": "Not Installed",
  "Check": "No_Tracker"
 },
 {
  "Site ID Number": 600765,
  "Latitude": 7.340185,
  "Longitude": -2.348905,
  "Site Name": "FIAPRE",
  "Ghana Sites.Tracker IMEI": 0,
  "Installation Status": "Not Installed",
  "Check": "No_Tracker"
 },
 {
  "Site ID Number": 600766,
  "Latitude": 7.69698023,
  "Longitude": -2.2325477,
  "Site Name": "BADU",
  "Ghana Sites.Tracker IMEI": 0,
  "Installation Status": "Not Installed",
  "Check": "No_Tracker"
 },
 {
  "Site ID Number": 600767,
  "Latitude": 7.2165483,
  "Longitude": -2.2340777,
  "Site Name": "YAMFO",
  "Ghana Sites.Tracker IMEI": 0,
  "Installation Status": "Not Installed",
  "Check": "No_Tracker"
 },
 {
  "Site ID Number": 600768,
  "Latitude": 7.295168,
  "Longitude": -2.2714832,
  "Site Name": "ABESEM",
  "Ghana Sites.Tracker IMEI": 0,
  "Installation Status": "Not Installed",
  "Check": "No_Tracker"
 },
 {
  "Site ID Number": 600769,
  "Latitude": 9.9244416,
  "Longitude": -0.4323671,
  "Site Name": "KARAGA",
  "Ghana Sites.Tracker IMEI": 0,
  "Installation Status": "Not Installed",
  "Check": "No_Tracker"
 },
 {
  "Site ID Number": 600770,
  "Latitude": 10.5307636,
  "Longitude": -0.3701912,
  "Site Name": "NALERIGU",
  "Ghana Sites.Tracker IMEI": 0,
  "Installation Status": "Not Installed",
  "Check": "No_Tracker"
 },
 {
  "Site ID Number": 600771,
  "Latitude": 9.4005754,
  "Longitude": -0.9832187,
  "Site Name": "NYAMKPALA",
  "Ghana Sites.Tracker IMEI": 0,
  "Installation Status": "Not Installed",
  "Check": "No_Tracker"
 },
 {
  "Site ID Number": 600775,
  "Latitude": 6.6242536,
  "Longitude": -1.2080136,
  "Site Name": "KONONGO2",
  "Ghana Sites.Tracker IMEI": 0,
  "Installation Status": "Not Installed",
  "Check": "No_Tracker"
 },
 {
  "Site ID Number": 600776,
  "Latitude": 9.359515,
  "Longitude": 0.523758333333333,
  "Site Name": "TATALE",
  "Ghana Sites.Tracker IMEI": 0,
  "Installation Status": "Not Installed",
  "Check": "No_Tracker"
 },
 {
  "Site ID Number": 600777,
  "Latitude": 7.37562333333333,
  "Longitude": -2.31797333333333,
  "Site Name": "ODUMASIBR",
  "Ghana Sites.Tracker IMEI": 0,
  "Installation Status": "Not Installed",
  "Check": "No_Tracker"
 },
 {
  "Site ID Number": 600778,
  "Latitude": 6.848005,
  "Longitude": -1.400145,
  "Site Name": "EFFIDUASE2",
  "Ghana Sites.Tracker IMEI": 0,
  "Installation Status": "Not Installed",
  "Check": "No_Tracker"
 },
 {
  "Site ID Number": 600779,
  "Latitude": 6.28890166666667,
  "Longitude": -1.519605,
  "Site Name": "FOMENA",
  "Ghana Sites.Tracker IMEI": 0,
  "Installation Status": "Not Installed",
  "Check": "No_Tracker"
 },
 {
  "Site ID Number": 600780,
  "Latitude": 6.120245,
  "Longitude": -1.65088833333333,
  "Site Name": "AKROFUOM",
  "Ghana Sites.Tracker IMEI": 0,
  "Installation Status": "Not Installed",
  "Check": "No_Tracker"
 },
 {
  "Site ID Number": 600782,
  "Latitude": 6.59352666666667,
  "Longitude": -1.07524,
  "Site Name": "ATWEDIE",
  "Ghana Sites.Tracker IMEI": 0,
  "Installation Status": "Not Installed",
  "Check": "No_Tracker"
 },
 {
  "Site ID Number": 600785,
  "Latitude": 8.25291333333333,
  "Longitude": -1.61337166666667,
  "Site Name": "CHIRANDALSH53.5V",
  "Ghana Sites.Tracker IMEI": 0,
  "Installation Status": "Not Installed",
  "Check": "No_Tracker"
 },
 {
  "Site ID Number": 600786,
  "Latitude": 7.9011633,
  "Longitude": -2.6337317,
  "Site Name": "DUADASO",
  "Ghana Sites.Tracker IMEI": 0,
  "Installation Status": "Not Installed",
  "Check": "No_Tracker"
 },
 {
  "Site ID Number": 600787,
  "Latitude": 6.215465,
  "Longitude": -1.69156666666667,
  "Site Name": "KONKA",
  "Ghana Sites.Tracker IMEI": 0,
  "Installation Status": "Not Installed",
  "Check": "No_Tracker"
 },
 {
  "Site ID Number": 600789,
  "Latitude": 7.90328833333333,
  "Longitude": -1.77035833333333,
  "Site Name": "JEMA",
  "Ghana Sites.Tracker IMEI": 0,
  "Installation Status": "Not Installed",
  "Check": "No_Tracker"
 },
 {
  "Site ID Number": 600790,
  "Latitude": 8.05183833333333,
  "Longitude": -1.729465,
  "Site Name": "KINTAMPO2",
  "Ghana Sites.Tracker IMEI": 0,
  "Installation Status": "Not Installed",
  "Check": "No_Tracker"
 },
 {
  "Site ID Number": 600791,
  "Latitude": 6.66178833333333,
  "Longitude": -1.81933666666667,
  "Site Name": "NKAWIE",
  "Ghana Sites.Tracker IMEI": 0,
  "Installation Status": "Not Installed",
  "Check": "No_Tracker"
 },
 {
  "Site ID Number": 600792,
  "Latitude": 7.56346166666667,
  "Longitude": -1.710725,
  "Site Name": "NKORANSA2",
  "Ghana Sites.Tracker IMEI": 0,
  "Installation Status": "Not Installed",
  "Check": "No_Tracker"
 },
 {
  "Site ID Number": 600794,
  "Latitude": 6.52057833333333,
  "Longitude": -1.12048,
  "Site Name": "BOGU",
  "Ghana Sites.Tracker IMEI": 0,
  "Installation Status": "Not Installed",
  "Check": "No_Tracker"
 },
 {
  "Site ID Number": 600796,
  "Latitude": 6.94803769,
  "Longitude": -1.67098281,
  "Site Name": "OFFINSO2",
  "Ghana Sites.Tracker IMEI": 0,
  "Installation Status": "Not Installed",
  "Check": "No_Tracker"
 },
 {
  "Site ID Number": 600798,
  "Latitude": 6.43340666666667,
  "Longitude": -1.68464166666667,
  "Site Name": "POANO",
  "Ghana Sites.Tracker IMEI": 0,
  "Installation Status": "Not Installed",
  "Check": "No_Tracker"
 },
 {
  "Site ID Number": 600799,
  "Latitude": 7.86198854,
  "Longitude": -2.08094163,
  "Site Name": "SUBINSO",
  "Ghana Sites.Tracker IMEI": 0,
  "Installation Status": "Not Installed",
  "Check": "No_Tracker"
 },
 {
  "Site ID Number": 600800,
  "Latitude": 7.9200419,
  "Longitude": -2.714877,
  "Site Name": "SUMAHENKRO",
  "Ghana Sites.Tracker IMEI": 0,
  "Installation Status": "Not Installed",
  "Check": "No_Tracker"
 },
 {
  "Site ID Number": 600802,
  "Latitude": 7.00436,
  "Longitude": -1.955825,
  "Site Name": "POKUKROM2",
  "Ghana Sites.Tracker IMEI": 0,
  "Installation Status": "Not Installed",
  "Check": "No_Tracker"
 },
 {
  "Site ID Number": 600803,
  "Latitude": 7.38375833333333,
  "Longitude": -1.36021333333333,
  "Site Name": "EJURA2",
  "Ghana Sites.Tracker IMEI": 0,
  "Installation Status": "Not Installed",
  "Check": "No_Tracker"
 },
 {
  "Site ID Number": 600804,
  "Latitude": 6.71504333333333,
  "Longitude": -1.13168333333333,
  "Site Name": "DOMEABRAARLS",
  "Ghana Sites.Tracker IMEI": 0,
  "Installation Status": "Not Installed",
  "Check": "No_Tracker"
 },
 {
  "Site ID Number": 600805,
  "Latitude": 7.09216333333333,
  "Longitude": -1.88586833333333,
  "Site Name": "SABRONUM",
  "Ghana Sites.Tracker IMEI": 0,
  "Installation Status": "Not Installed",
  "Check": "No_Tracker"
 },
 {
  "Site ID Number": 600806,
  "Latitude": 6.66240833333333,
  "Longitude": -1.67481666666667,
  "Site Name": "KROMUSE",
  "Ghana Sites.Tracker IMEI": 0,
  "Installation Status": "Not Installed",
  "Check": "No_Tracker"
 },
 {
  "Site ID Number": 600807,
  "Latitude": 7.01248166666667,
  "Longitude": -1.38184333333333,
  "Site Name": "NSUTA",
  "Ghana Sites.Tracker IMEI": 0,
  "Installation Status": "Not Installed",
  "Check": "No_Tracker"
 },
 {
  "Site ID Number": 600808,
  "Latitude": 6.97530666666667,
  "Longitude": -1.26768833333333,
  "Site Name": "KWAMAG",
  "Ghana Sites.Tracker IMEI": 0,
  "Installation Status": "Not Installed",
  "Check": "No_Tracker"
 },
 {
  "Site ID Number": 600809,
  "Latitude": 6.79172166666667,
  "Longitude": -1.46959833333333,
  "Site Name": "BONWIRE",
  "Ghana Sites.Tracker IMEI": 0,
  "Installation Status": "Not Installed",
  "Check": "No_Tracker"
 },
 {
  "Site ID Number": 600810,
  "Latitude": 6.79937166666667,
  "Longitude": -1.084395,
  "Site Name": "AGOGO2",
  "Ghana Sites.Tracker IMEI": 0,
  "Installation Status": "Not Installed",
  "Check": "No_Tracker"
 },
 {
  "Site ID Number": 600811,
  "Latitude": 7.14158666666667,
  "Longitude": -1.48316333333333,
  "Site Name": "KOFIASE",
  "Ghana Sites.Tracker IMEI": 0,
  "Installation Status": "Not Installed",
  "Check": "No_Tracker"
 },
 {
  "Site ID Number": 600812,
  "Latitude": 6.85873,
  "Longitude": -1.73543,
  "Site Name": "BAREKESE",
  "Ghana Sites.Tracker IMEI": 0,
  "Installation Status": "Not Installed",
  "Check": "No_Tracker"
 },
 {
  "Site ID Number": 600813,
  "Latitude": 6.806805,
  "Longitude": -1.53331333333333,
  "Site Name": "ABOASO",
  "Ghana Sites.Tracker IMEI": 0,
  "Installation Status": "Not Installed",
  "Check": "No_Tracker"
 },
 {
  "Site ID Number": 600815,
  "Latitude": 7.75374,
  "Longitude": -0.988073333333333,
  "Site Name": "ATEBUBU2H51.5V",
  "Ghana Sites.Tracker IMEI": 0,
  "Installation Status": "Not Installed",
  "Check": "No_Tracker"
 },
 {
  "Site ID Number": 600816,
  "Latitude": 6.8091014,
  "Longitude": -2.5365544,
  "Site Name": "GOASO2",
  "Ghana Sites.Tracker IMEI": 0,
  "Installation Status": "Not Installed",
  "Check": "No_Tracker"
 },
 {
  "Site ID Number": 600817,
  "Latitude": 7.4369872,
  "Longitude": -2.5684522,
  "Site Name": "BEREKUM2",
  "Ghana Sites.Tracker IMEI": 0,
  "Installation Status": "Not Installed",
  "Check": "No_Tracker"
 },
 {
  "Site ID Number": 600820,
  "Latitude": 6.8092165,
  "Longitude": -2.5367073,
  "Site Name": "MIM2",
  "Ghana Sites.Tracker IMEI": 0,
  "Installation Status": "Not Installed",
  "Check": "No_Tracker"
 },
 {
  "Site ID Number": 600821,
  "Latitude": 7.34006166666667,
  "Longitude": -2.34895166666667,
  "Site Name": "SUNYANI3",
  "Ghana Sites.Tracker IMEI": 0,
  "Installation Status": "Not Installed",
  "Check": "No_Tracker"
 },
 {
  "Site ID Number": 600822,
  "Latitude": 7.1861293,
  "Longitude": -2.0249302,
  "Site Name": "TECHIMANTIA",
  "Ghana Sites.Tracker IMEI": 0,
  "Installation Status": "Not Installed",
  "Check": "No_Tracker"
 },
 {
  "Site ID Number": 600823,
  "Latitude": 7.2115067,
  "Longitude": -1.9378914,
  "Site Name": "DERMA",
  "Ghana Sites.Tracker IMEI": 0,
  "Installation Status": "Not Installed",
  "Check": "No_Tracker"
 },
 {
  "Site ID Number": 600824,
  "Latitude": 7.2695364,
  "Longitude": -2.2384861,
  "Site Name": "TANOSO1",
  "Ghana Sites.Tracker IMEI": 0,
  "Installation Status": "Not Installed",
  "Check": "No_Tracker"
 },
 {
  "Site ID Number": 600825,
  "Latitude": 7.72547,
  "Longitude": -2.5158733,
  "Site Name": "SEIKWA",
  "Ghana Sites.Tracker IMEI": 0,
  "Installation Status": "Not Installed",
  "Check": "No_Tracker"
 },
 {
  "Site ID Number": 600827,
  "Latitude": 7.2641133,
  "Longitude": -2.7586617,
  "Site Name": "WAMANFO",
  "Ghana Sites.Tracker IMEI": 0,
  "Installation Status": "Not Installed",
  "Check": "No_Tracker"
 },
 {
  "Site ID Number": 600830,
  "Latitude": 5.5727605,
  "Longitude": -0.2175539,
  "Site Name": "CIRCLELS",
  "Ghana Sites.Tracker IMEI": 0,
  "Installation Status": "Not Installed",
  "Check": "No_Tracker"
 },
 {
  "Site ID Number": 600831,
  "Latitude": 5.576905,
  "Longitude": -0.204265,
  "Site Name": "KOKOMLEMLE3",
  "Ghana Sites.Tracker IMEI": 0,
  "Installation Status": "Not Installed",
  "Check": "No_Tracker"
 },
 {
  "Site ID Number": 600833,
  "Latitude": 5.6380899,
  "Longitude": -0.2550299,
  "Site Name": "TANTRAHILL",
  "Ghana Sites.Tracker IMEI": 0,
  "Installation Status": "Not Installed",
  "Check": "No_Tracker"
 },