[
  {
    "lat": 5.5663486,
    "lon": -0.2115747,
    "name": "ADABRAKA2(NIAGARAHOTEL)",
    "id": 0,
    "trackerIMEI": 0,
    "icons": [
      "https://raw.githubusercontent.com/KKEsty2024/GhanaSites/main/cell%20tower.jpg"
    ]
  },
  {
    "lat": 5.5521427,
    "lon": -0.2091914,
    "name": "TUDU2",
    "id": 0,
    "trackerIMEI": 0,
    "icons": [
      "https://raw.githubusercontent.com/KKEsty2024/GhanaSites/main/cell%20tower.jpg"
    ]
  },
  {
    "lat": 5.5480165,
    "lon": -0.2096553,
    "name": "TUDU1",
    "id": 0,
    "trackerIMEI": 0,
    "icons": [
      "https://raw.githubusercontent.com/KKEsty2024/GhanaSites/main/cell%20tower.jpg"
    ]
  },
  {
    "lat": 5.561532,
    "lon": -0.1809441,
    "name": "CASTLENODG",
    "id": 0,
    "trackerIMEI": 0,
    "icons": [
      "https://raw.githubusercontent.com/KKEsty2024/GhanaSites/main/cell%20tower.jpg"
    ]
  },
  {
    "lat": 5.553113,
    "lon": -0.2008789,
    "name": "ACCCENTRAL",
    "id": 0,
    "trackerIMEI": 0,
    "icons": [
      "https://raw.githubusercontent.com/KKEsty2024/GhanaSites/main/cell%20tower.jpg"
    ]
  },
  {
    "lat": 5.5614097,
    "lon": -0.1806733,
    "name": "OSUOFFICE",
    "id": 0,
    "trackerIMEI": 0,
    "icons": [
      "https://raw.githubusercontent.com/KKEsty2024/GhanaSites/main/cell%20tower.jpg"
    ]
  },
  {
    "lat": 5.5678572,
    "lon": -0.1885108,
    "name": "RINGWAY",
    "id": 0,
    "trackerIMEI": 0,
    "icons": [
      "https://raw.githubusercontent.com/KKEsty2024/GhanaSites/main/cell%20tower.jpg"
    ]
  },
  {
    "lat": 5.56763666666667,
    "lon": -0.198613333333333,
    "name": "SUNRISE",
    "id": 0,
    "trackerIMEI": 0,
    "icons": [
      "https://raw.githubusercontent.com/KKEsty2024/GhanaSites/main/cell%20tower.jpg"
    ]
  },
  {
    "lat": 5.5662806,
    "lon": -0.2379386,
    "name": "KANMARKET",
    "id": 0,
    "trackerIMEI": 0,
    "icons": [
      "https://raw.githubusercontent.com/KKEsty2024/GhanaSites/main/cell%20tower.jpg"
    ]
  },
  {
    "lat": 5.584845,
    "lon": -0.233116666666667,
    "name": "KANESHIE",
    "id": 0,
    "trackerIMEI": 0,
    "icons": [
      "https://raw.githubusercontent.com/KKEsty2024/GhanaSites/main/cell%20tower.jpg"
    ]
  },
  {
    "lat": 5.58688022236335,
    "lon": -0.242550749951654,
    "name": "BUBUASHIE",
    "id": 0,
    "trackerIMEI": 0,
    "icons": [
      "https://raw.githubusercontent.com/KKEsty2024/GhanaSites/main/cell%20tower.jpg"
    ]
  },
  {
    "lat": 5.5946297,
    "lon": -0.2172739,
    "name": "ALAJO",
    "id": 0,
    "trackerIMEI": 0,
    "icons": [
      "https://raw.githubusercontent.com/KKEsty2024/GhanaSites/main/cell%20tower.jpg"
    ]
  },
  {
    "lat": 5.6107323,
    "lon": -0.2202062,
    "name": "ABELEMKPE1",
    "id": 0,
    "trackerIMEI": 0,
    "icons": [
      "https://raw.githubusercontent.com/KKEsty2024/GhanaSites/main/cell%20tower.jpg"
    ]
  },
  {
    "lat": 5.60607333333333,
    "lon": -0.248991666666667,
    "name": "LAPAZ1",
    "id": 0,
    "trackerIMEI": 0,
    "icons": [
      "https://raw.githubusercontent.com/KKEsty2024/GhanaSites/main/cell%20tower.jpg"
    ]
  },
  {
    "lat": 5.62429833333333,
    "lon": -0.23535,
    "name": "NEWACHIMOTA",
    "id": 0,
    "trackerIMEI": 0,
    "icons": [
      "https://raw.githubusercontent.com/KKEsty2024/GhanaSites/main/cell%20tower.jpg"
    ]
  },
  {
    "lat": 5.66966666666667,
    "lon": -0.240188333333333,
    "name": "KWABENYA",
    "id": 0,
    "trackerIMEI": 0,
    "icons": [
      "https://raw.githubusercontent.com/KKEsty2024/GhanaSites/main/cell%20tower.jpg"
    ]
  },
  {
    "lat": 5.69216166666667,
    "lon": -0.266136666666667,
    "name": "POKUASI",
    "id": 0,
    "trackerIMEI": 0,
    "icons": [
      "https://raw.githubusercontent.com/KKEsty2024/GhanaSites/main/cell%20tower.jpg"
    ]
  },
  {
    "lat": 5.56988,
    "lon": -0.1484417,
    "name": "TRADEFAIR",
    "id": 0,
    "trackerIMEI": 0,
    "icons": [
      "https://raw.githubusercontent.com/KKEsty2024/GhanaSites/main/cell%20tower.jpg"
    ]
  },
  {
    "lat": 5.59919166666667,
    "lon": -0.179583333333333,
    "name": "OPEIBEANODG",
    "id": 0,
    "trackerIMEI": 0,
    "icons": [
      "https://raw.githubusercontent.com/KKEsty2024/GhanaSites/main/cell%20tower.jpg"
    ]
  },
  {
    "lat": 5.6028791,
    "lon": -0.2008755,
    "name": "SALEMSHOUSE",
    "id": 0,
    "trackerIMEI": 0,
    "icons": [
      "https://raw.githubusercontent.com/KKEsty2024/GhanaSites/main/cell%20tower.jpg"
    ]
  },
  {
    "lat": 5.6150403,
    "lon": -0.1961798,
    "name": "DZORWULU",
    "id": 0,
    "trackerIMEI": 0,
    "icons": [
      "https://raw.githubusercontent.com/KKEsty2024/GhanaSites/main/cell%20tower.jpg"
    ]
  },
  {
    "lat": 5.67064666666667,
    "lon": -0.165116666666667,
    "name": "MADINA3",
    "id": 0,
    "trackerIMEI": 0,
    "icons": [
      "https://raw.githubusercontent.com/KKEsty2024/GhanaSites/main/cell%20tower.jpg"
    ]
  },
  {
    "lat": 5.6086714,
    "lon": -0.1888724,
    "name": "AIRPORT2",
    "id": 0,
    "trackerIMEI": 0,
    "icons": [
      "https://raw.githubusercontent.com/KKEsty2024/GhanaSites/main/cell%20tower.jpg"
    ]
  },
  {
    "lat": 5.5452493,
    "lon": -0.2117131,
    "name": "CHILDHOSPL",
    "id": 0,
    "trackerIMEI": 0,
    "icons": [
      "https://raw.githubusercontent.com/KKEsty2024/GhanaSites/main/cell%20tower.jpg"
    ]
  },
  {
    "lat": 5.58197,
    "lon": -0.105938333333333,
    "name": "TRADEFAIR2",
    "id": 0,
    "trackerIMEI": 0,
    "icons": [
      "https://raw.githubusercontent.com/KKEsty2024/GhanaSites/main/cell%20tower.jpg"
    ]
  },
  {
    "lat": 5.5813319911897,
    "lon": -0.264793587146781,
    "name": "OODORKOR2",
    "id": 0,
    "trackerIMEI": 0,
    "icons": [
      "https://raw.githubusercontent.com/KKEsty2024/GhanaSites/main/cell%20tower.jpg"
    ]
  },
  {
    "lat": 5.567075,
    "lon": -0.295883333333333,
    "name": "MACARTHY1",
    "id": 0,
    "trackerIMEI": 0,
    "icons": [
      "https://raw.githubusercontent.com/KKEsty2024/GhanaSites/main/cell%20tower.jpg"
    ]
  },
  {
    "lat": 5.56141699284126,
    "lon": -0.268925819011899,
    "name": "ODORKOR1",
    "id": 0,
    "trackerIMEI": 0,
    "icons": [
      "https://raw.githubusercontent.com/KKEsty2024/GhanaSites/main/cell%20tower.jpg"
    ]
  },
  {
    "lat": 5.5392617,
    "lon": -0.3072767,
    "name": "MCARTHY2",
    "id": 0,
    "trackerIMEI": 0,
    "icons": [
      "https://raw.githubusercontent.com/KKEsty2024/GhanaSites/main/cell%20tower.jpg"
    ]
  },
  {
    "lat": 5.5368675,
    "lon": -0.2661152,
    "name": "DANSOMAN2",
    "id": 0,
    "trackerIMEI": 0,
    "icons": [
      "https://raw.githubusercontent.com/KKEsty2024/GhanaSites/main/cell%20tower.jpg"
    ]
  },
  {
    "lat": 5.56944706524294,
    "lon": -0.254515486746154,
    "name": "DANSOMAN3",
    "id": 0,
    "trackerIMEI": 0,
    "icons": [
      "https://raw.githubusercontent.com/KKEsty2024/GhanaSites/main/cell%20tower.jpg"
    ]
  },
  {
    "lat": 5.5945367,
    "lon": -0.1898617,
    "name": "CSIR",
    "id": 0,
    "trackerIMEI": 0,
    "icons": [
      "https://raw.githubusercontent.com/KKEsty2024/GhanaSites/main/cell%20tower.jpg"
    ]
  },
  {
    "lat": 5.58979670117023,
    "lon": -0.26016505565471,
    "name": "ODORKOR3",
    "id": 0,
    "trackerIMEI": 0,
    "icons": [
      "https://raw.githubusercontent.com/KKEsty2024/GhanaSites/main/cell%20tower.jpg"
    ]
  },
  {
    "lat": 5.5894309,
    "lon": -0.2816446,
    "name": "ODORGONO",
    "id": 0,
    "trackerIMEI": 0,
    "icons": [
      "https://raw.githubusercontent.com/KKEsty2024/GhanaSites/main/cell%20tower.jpg"
    ]
  },
  {
    "lat": 5.6245033,
    "lon": -0.30273,
    "name": "ABLEKUMA",
    "id": 0,
    "trackerIMEI": 0,
    "icons": [
      "https://raw.githubusercontent.com/KKEsty2024/GhanaSites/main/cell%20tower.jpg"
    ]
  },
  {
    "lat": 5.60225333333333,
    "lon": -0.315633333333333,
    "name": "GBAWEHILL",
    "id": 0,
    "trackerIMEI": 0,
    "icons": [
      "https://raw.githubusercontent.com/KKEsty2024/GhanaSites/main/cell%20tower.jpg"
    ]
  },
  {
    "lat": 5.575545,
    "lon": -0.282206666666667,
    "name": "MALLAMJUNCLS",
    "id": 0,
    "trackerIMEI": 0,
    "icons": [
      "https://raw.githubusercontent.com/KKEsty2024/GhanaSites/main/cell%20tower.jpg"
    ]
  },
  {
    "lat": 5.61613333333333,
    "lon": -0.250241666666667,
    "name": "NIIBOI",
    "id": 0,
    "trackerIMEI": 0,
    "icons": [
      "https://raw.githubusercontent.com/KKEsty2024/GhanaSites/main/cell%20tower.jpg"
    ]
  },
  {
    "lat": 5.70663833333333,
    "lon": -0.239438333333333,
    "name": "ASHONGMAN1",
    "id": 0,
    "trackerIMEI": 0,
    "icons": [
      "https://raw.githubusercontent.com/KKEsty2024/GhanaSites/main/cell%20tower.jpg"
    ]
  },
  {
    "lat": 5.64056833333333,
    "lon": -0.226918333333333,
    "name": "PARAKU",
    "id": 0,
    "trackerIMEI": 0,
    "icons": [
      "https://raw.githubusercontent.com/KKEsty2024/GhanaSites/main/cell%20tower.jpg"
    ]
  },
  {
    "lat": 5.59872454930407,
    "lon": -0.252140562346419,
    "name": "FADAMA",
    "id": 0,
    "trackerIMEI": 0,
    "icons": [
      "https://raw.githubusercontent.com/KKEsty2024/GhanaSites/main/cell%20tower.jpg"
    ]
  },
  {
    "lat": 5.60825333333333,
    "lon": -0.260278333333333,
    "name": "TABORA",
    "id": 0,
    "trackerIMEI": 0,
    "icons": [
      "https://raw.githubusercontent.com/KKEsty2024/GhanaSites/main/cell%20tower.jpg"
    ]
  },
  {
    "lat": 5.597435,
    "lon": -0.1995132,
    "name": "PIGFARM",
    "id": 0,
    "trackerIMEI": 0,
    "icons": [
      "https://raw.githubusercontent.com/KKEsty2024/GhanaSites/main/cell%20tower.jpg"
    ]
  },
  {
    "lat": 5.6629205,
    "lon": -0.2068211,
    "name": "KESSIEH",
    "id": 0,
    "trackerIMEI": 0,
    "icons": [
      "https://raw.githubusercontent.com/KKEsty2024/GhanaSites/main/cell%20tower.jpg"
    ]
  },
  {
    "lat": 5.52399,
    "lon": -0.3486433,
    "name": "SAMPAVALLY",
    "id": 0,
    "trackerIMEI": 0,
    "icons": [
      "https://raw.githubusercontent.com/KKEsty2024/GhanaSites/main/cell%20tower.jpg"
    ]
  },
  {
    "lat": 5.56121666666667,
    "lon": -0.254465,
    "name": "DANSOMAN4",
    "id": 0,
    "trackerIMEI": 0,
    "icons": [
      "https://raw.githubusercontent.com/KKEsty2024/GhanaSites/main/cell%20tower.jpg"
    ]
  },
  {
    "lat": 5.6120876,
    "lon": -0.2024214,
    "name": "DZORWULU2",
    "id": 0,
    "trackerIMEI": 0,
    "icons": [
      "https://raw.githubusercontent.com/KKEsty2024/GhanaSites/main/cell%20tower.jpg"
    ]
  },
  {
    "lat": 5.5913313,
    "lon": -0.204058,
    "name": "KOTOBABI",
    "id": 0,
    "trackerIMEI": 0,
    "icons": [
      "https://raw.githubusercontent.com/KKEsty2024/GhanaSites/main/cell%20tower.jpg"
    ]
  },
  {
    "lat": 5.5675595,
    "lon": -0.1641868,
    "name": "APAAPA",
    "id": 0,
    "trackerIMEI": 0,
    "icons": [
      "https://raw.githubusercontent.com/KKEsty2024/GhanaSites/main/cell%20tower.jpg"
    ]
  },
  {
    "lat": 5.567605,
    "lon": -0.221813333333333,
    "name": "GWSCLS",
    "id": 0,
    "trackerIMEI": 0,
    "icons": [
      "https://raw.githubusercontent.com/KKEsty2024/GhanaSites/main/cell%20tower.jpg"
    ]
  },
  {
    "lat": 5.554105,
    "lon": -0.266506666666667,
    "name": "DANSAHARA",
    "id": 0,
    "trackerIMEI": 0,
    "icons": [
      "https://raw.githubusercontent.com/KKEsty2024/GhanaSites/main/cell%20tower.jpg"
    ]
  },
  {
    "lat": 5.54360666666667,
    "lon": -0.242828333333333,
    "name": "LATERBIOKOSHIE",
    "id": 0,
    "trackerIMEI": 0,
    "icons": [
      "https://raw.githubusercontent.com/KKEsty2024/GhanaSites/main/cell%20tower.jpg"
    ]
  },
  {
    "lat": 5.576415,
    "lon": -0.1992783,
    "name": "NIMARABOUT",
    "id": 0,
    "trackerIMEI": 0,
    "icons": [
      "https://raw.githubusercontent.com/KKEsty2024/GhanaSites/main/cell%20tower.jpg"
    ]
  },
  {
    "lat": 5.5778387,
    "lon": -0.2370882,
    "name": "AGNESSDAY",
    "id": 0,
    "trackerIMEI": 0,
    "icons": [
      "https://raw.githubusercontent.com/KKEsty2024/GhanaSites/main/cell%20tower.jpg"
    ]
  },
  {
    "lat": 5.5726,
    "lon": -0.2308683,
    "name": "MOTHERSINN",
    "id": 0,
    "trackerIMEI": 0,
    "icons": [
      "https://raw.githubusercontent.com/KKEsty2024/GhanaSites/main/cell%20tower.jpg"
    ]
  },
  {
    "lat": 5.5377967,
    "lon": -0.355815,
    "name": "BORTIANOR",
    "id": 0,
    "trackerIMEI": 0,
    "icons": [
      "https://raw.githubusercontent.com/KKEsty2024/GhanaSites/main/cell%20tower.jpg"
    ]
  },
  {
    "lat": 5.5387133,
    "lon": -0.21298,
    "name": "PALLADIUM1",
    "id": 0,
    "trackerIMEI": 0,
    "icons": [
      "https://raw.githubusercontent.com/KKEsty2024/GhanaSites/main/cell%20tower.jpg"
    ]
  },
  {
    "lat": 5.54830666666667,
    "lon": -0.212888333333333,
    "name": "GEOWAS",
    "id": 0,
    "trackerIMEI": 0,
    "icons": [
      "https://raw.githubusercontent.com/KKEsty2024/GhanaSites/main/cell%20tower.jpg"
    ]
  },
  {
    "lat": 5.58086181032152,
    "lon": -0.248881773846241,
    "name": "BUBUASHI4",
    "id": 0,
    "trackerIMEI": 0,
    "icons": [
      "https://raw.githubusercontent.com/KKEsty2024/GhanaSites/main/cell%20tower.jpg"
    ]
  },
  {
    "lat": 5.55393666666667,
    "lon": -0.18739,
    "name": "KINGDOMBKS",
    "id": 0,
    "trackerIMEI": 0,
    "icons": [
      "https://raw.githubusercontent.com/KKEsty2024/GhanaSites/main/cell%20tower.jpg"
    ]
  },
  {
    "lat": 5.67444543,
    "lon": -0.17730805,
    "name": "ATOMIC",
    "id": 0,
    "trackerIMEI": 0,
    "icons": [
      "https://raw.githubusercontent.com/KKEsty2024/GhanaSites/main/cell%20tower.jpg"
    ]
  },
  {
    "lat": 5.6857557,
    "lon": -0.1623557,
    "name": "MADINA2",
    "id": 0,
    "trackerIMEI": 0,
    "icons": [
      "https://raw.githubusercontent.com/KKEsty2024/GhanaSites/main/cell%20tower.jpg"
    ]
  },
  {
    "lat": 5.7112101,
    "lon": -0.1708012,
    "name": "ADENTA1",
    "id": 0,
    "trackerIMEI": 0,
    "icons": [
      "https://raw.githubusercontent.com/KKEsty2024/GhanaSites/main/cell%20tower.jpg"
    ]
  },
  {
    "lat": 5.6842251,
    "lon": -0.1389748,
    "name": "ASLYBOTWE",
    "id": 0,
    "trackerIMEI": 0,
    "icons": [
      "https://raw.githubusercontent.com/KKEsty2024/GhanaSites/main/cell%20tower.jpg"
    ]
  },
  {
    "lat": 5.7122054,
    "lon": -0.1393389,
    "name": "ADENTA4",
    "id": 0,
    "trackerIMEI": 0,
    "icons": [
      "https://raw.githubusercontent.com/KKEsty2024/GhanaSites/main/cell%20tower.jpg"
    ]
  },
  {
    "lat": 5.53546666666667,
    "lon": -0.247713333333333,
    "name": "MAMPROBI",
    "id": 0,
    "trackerIMEI": 0,
    "icons": [
      "https://raw.githubusercontent.com/KKEsty2024/GhanaSites/main/cell%20tower.jpg"
    ]
  },
  {
    "lat": 5.68017333333333,
    "lon": -0.255666666666667,
    "name": "BURKINA",
    "id": 0,
    "trackerIMEI": 0,
    "icons": [
      "https://raw.githubusercontent.com/KKEsty2024/GhanaSites/main/cell%20tower.jpg"
    ]
  },
  {
    "lat": 5.56064333333333,
    "lon": -0.236045,
    "name": "ABOSIOKAI",
    "id": 0,
    "trackerIMEI": 0,
    "icons": [
      "https://raw.githubusercontent.com/KKEsty2024/GhanaSites/main/cell%20tower.jpg"
    ]
  },
  {
    "lat": 5.6208173,
    "lon": -0.1852841,
    "name": "ACHIMOTA1",
    "id": 0,
    "trackerIMEI": 0,
    "icons": [
      "https://raw.githubusercontent.com/KKEsty2024/GhanaSites/main/cell%20tower.jpg"
    ]
  },
  {
    "lat": 5.6334792,
    "lon": -0.2206524,
    "name": "ACHIMOTA2",
    "id": 0,
    "trackerIMEI": 0,
    "icons": [
      "https://raw.githubusercontent.com/KKEsty2024/GhanaSites/main/cell%20tower.jpg"
    ]
  },
  {
    "lat": 5.65001333333333,
    "lon": -0.211261666666667,
    "name": "WESTLEGON",
    "id": 0,
    "trackerIMEI": 0,
    "icons": [
      "https://raw.githubusercontent.com/KKEsty2024/GhanaSites/main/cell%20tower.jpg"
    ]
  },
  {
    "lat": 5.68749166666667,
    "lon": -0.243818333333333,
    "name": "KWABENYA2",
    "id": 0,
    "trackerIMEI": 0,
    "icons": [
      "https://raw.githubusercontent.com/KKEsty2024/GhanaSites/main/cell%20tower.jpg"
    ]
  },
  {
    "lat": 0,
    "lon": 0,
    "name": "DOME",
    "id": 0,
    "trackerIMEI": 0,
    "icons": [
      "https://raw.githubusercontent.com/KKEsty2024/GhanaSites/main/cell%20tower.jpg"
    ]
  },
  {
    "lat": 5.64338333333333,
    "lon": -0.265035,
    "name": "OFANKOR2",
    "id": 0,
    "trackerIMEI": 0,
    "icons": [
      "https://raw.githubusercontent.com/KKEsty2024/GhanaSites/main/cell%20tower.jpg"
    ]
  },
  {
    "lat": 5.5820508,
    "lon": -0.2084203,
    "name": "NEWTOWNLS",
    "id": 0,
    "trackerIMEI": 0,
    "icons": [
      "https://raw.githubusercontent.com/KKEsty2024/GhanaSites/main/cell%20tower.jpg"
    ]
  },
  {
    "lat": 5.6017582,
    "lon": -0.219103,
    "name": "NORTHALAJO",
    "id": 0,
    "trackerIMEI": 0,
    "icons": [
      "https://raw.githubusercontent.com/KKEsty2024/GhanaSites/main/cell%20tower.jpg"
    ]
  },
  {
    "lat": 5.5869363,
    "lon": -0.2308437,
    "name": "NORTHKANE3",
    "id": 0,
    "trackerIMEI": 0,
    "icons": [
      "https://raw.githubusercontent.com/KKEsty2024/GhanaSites/main/cell%20tower.jpg"
    ]
  },
  {
    "lat": 5.6037883,
    "lon": -0.2746583,
    "name": "SANTAMARIA",
    "id": 0,
    "trackerIMEI": 0,
    "icons": [
      "https://raw.githubusercontent.com/KKEsty2024/GhanaSites/main/cell%20tower.jpg"
    ]
  },
  {
    "lat": 5.59238,
    "lon": -0.2724917,
    "name": "KWASHIEMAN",
    "id": 0,
    "trackerIMEI": 0,
    "icons": [
      "https://raw.githubusercontent.com/KKEsty2024/GhanaSites/main/cell%20tower.jpg"
    ]
  },
  {
    "lat": 5.5695408,
    "lon": -0.2036918,
    "name": "ASYLUMDOWN",
    "id": 0,
    "trackerIMEI": 0,
    "icons": [
      "https://raw.githubusercontent.com/KKEsty2024/GhanaSites/main/cell%20tower.jpg"
    ]
  },
  {
    "lat": 5.5634218,
    "lon": -0.2026038,
    "name": "YMCA",
    "id": 0,
    "trackerIMEI": 0,
    "icons": [
      "https://raw.githubusercontent.com/KKEsty2024/GhanaSites/main/cell%20tower.jpg"
    ]
  },
  {
    "lat": 5.5662621,
    "lon": -0.1835136,
    "name": "OSULEBANES",
    "id": 0,
    "trackerIMEI": 0,
    "icons": [
      "https://raw.githubusercontent.com/KKEsty2024/GhanaSites/main/cell%20tower.jpg"
    ]
  },
  {
    "lat": 5.5669883,
    "lon": -0.1552317,
    "name": "LABADI2",
    "id": 0,
    "trackerIMEI": 0,
    "icons": [
      "https://raw.githubusercontent.com/KKEsty2024/GhanaSites/main/cell%20tower.jpg"
    ]
  },
  {
    "lat": 5.6662684,
    "lon": -0.1932582,
    "name": "LEGON",
    "id": 0,
    "trackerIMEI": 0,
    "icons": [
      "https://raw.githubusercontent.com/KKEsty2024/GhanaSites/main/cell%20tower.jpg"
    ]
  },
  {
    "lat": 5.66136333333333,
    "lon": -0.135711666666667,
    "name": "MADINA1",
    "id": 0,
    "trackerIMEI": 0,
    "icons": [
      "https://raw.githubusercontent.com/KKEsty2024/GhanaSites/main/cell%20tower.jpg"
    ]
  },
  {
    "lat": 5.69831805,
    "lon": -0.17863939,
    "name": "ADENTA2",
    "id": 0,
    "trackerIMEI": 0,
    "icons": [
      "https://raw.githubusercontent.com/KKEsty2024/GhanaSites/main/cell%20tower.jpg"
    ]
  },
  {
    "lat": 5.7041281,
    "lon": -0.1556984,
    "name": "ADENTA3",
    "id": 0,
    "trackerIMEI": 0,
    "icons": [
      "https://raw.githubusercontent.com/KKEsty2024/GhanaSites/main/cell%20tower.jpg"
    ]
  },
  {
    "lat": 5.67938525,
    "lon": -0.17398209,
    "name": "MADINA4LS",
    "id": 0,
    "trackerIMEI": 0,
    "icons": [
      "https://raw.githubusercontent.com/KKEsty2024/GhanaSites/main/cell%20tower.jpg"
    ]
  },
  {
    "lat": 5.5929133,
    "lon": -0.19818,
    "name": "MAMOBI",
    "id": 0,
    "trackerIMEI": 0,
    "icons": [
      "https://raw.githubusercontent.com/KKEsty2024/GhanaSites/main/cell%20tower.jpg"
    ]
  },
  {
    "lat": 5.5423912,
    "lon": -0.2142292,
    "name": "PALLADIUM2",
    "id": 0,
    "trackerIMEI": 0,
    "icons": [
      "https://raw.githubusercontent.com/KKEsty2024/GhanaSites/main/cell%20tower.jpg"
    ]
  },
  {
    "lat": 5.67973833333333,
    "lon": -0.197165,
    "name": "HAATSO",
    "id": 0,
    "trackerIMEI": 0,
    "icons": [
      "https://raw.githubusercontent.com/KKEsty2024/GhanaSites/main/cell%20tower.jpg"
    ]
  },
  {
    "lat": 5.60335620006711,
    "lon": -0.242245930287862,
    "name": "LAPAZ2",
    "id": 0,
    "trackerIMEI": 0,
    "icons": [
      "https://raw.githubusercontent.com/KKEsty2024/GhanaSites/main/cell%20tower.jpg"
    ]
  },
  {
    "lat": 5.601335,
    "lon": -0.2315302,
    "name": "TESANO2",
    "id": 0,
    "trackerIMEI": 0,
    "icons": [
      "https://raw.githubusercontent.com/KKEsty2024/GhanaSites/main/cell%20tower.jpg"
    ]
  },
  {
    "lat": 5.55635666666667,
    "lon": -0.222323333333333,
    "name": "GRAPHICROD",
    "id": 0,
    "trackerIMEI": 0,
    "icons": [
      "https://raw.githubusercontent.com/KKEsty2024/GhanaSites/main/cell%20tower.jpg"
    ]
  },
  {
    "lat": 5.69335483417508,
    "lon": -0.285071676243789,
    "name": "POKUASI2",
    "id": 0,
    "trackerIMEI": 0,
    "icons": [
      "https://raw.githubusercontent.com/KKEsty2024/GhanaSites/main/cell%20tower.jpg"
    ]
  },
  {
    "lat": 5.57031333333333,
    "lon": -0.292178333333333,
    "name": "MCARTHY3H509VLS",
    "id": 0,
    "trackerIMEI": 0,
    "icons": [
      "https://raw.githubusercontent.com/KKEsty2024/GhanaSites/main/cell%20tower.jpg"
    ]
  },
  {
    "lat": 5.5885129,
    "lon": -0.1550546,
    "name": "BURMACAMP",
    "id": 0,
    "trackerIMEI": 0,
    "icons": [
      "https://raw.githubusercontent.com/KKEsty2024/GhanaSites/main/cell%20tower.jpg"
    ]
  },
  {
    "lat": 6.677505,
    "lon": -1.59831666666667,
    "name": "FONTONFROM",
    "id": 0,
    "trackerIMEI": 0,
    "icons": [
      "https://raw.githubusercontent.com/KKEsty2024/GhanaSites/main/cell%20tower.jpg"
    ]
  },
  {
    "lat": 6.68103666666667,
    "lon": -1.59187833333333,
    "name": "OFORIKROM",
    "id": 0,
    "trackerIMEI": 0,
    "icons": [
      "https://raw.githubusercontent.com/KKEsty2024/GhanaSites/main/cell%20tower.jpg"
    ]
  },
  {
    "lat": 6.69050333333333,
    "lon": -1.59668666666667,
    "name": "ASHFM",
    "id": 0,
    "trackerIMEI": 0,
    "icons": [
      "https://raw.githubusercontent.com/KKEsty2024/GhanaSites/main/cell%20tower.jpg"
    ]
  },
  {
    "lat": 6.6888864,
    "lon": -1.6107065,
    "name": "ASAFO",
    "id": 0,
    "trackerIMEI": 0,
    "icons": [
      "https://raw.githubusercontent.com/KKEsty2024/GhanaSites/main/cell%20tower.jpg"
    ]
  },
  {
    "lat": 6.69392,
    "lon": -1.61808833333333,
    "name": "BOMPATA3",
    "id": 0,
    "trackerIMEI": 0,
    "icons": [
      "https://raw.githubusercontent.com/KKEsty2024/GhanaSites/main/cell%20tower.jpg"
    ]
  },
  {
    "lat": 6.699295,
    "lon": -1.62051,
    "name": "MARKET3",
    "id": 0,
    "trackerIMEI": 0,
    "icons": [
      "https://raw.githubusercontent.com/KKEsty2024/GhanaSites/main/cell%20tower.jpg"
    ]
  },
  {
    "lat": 6.68346,
    "lon": -1.611465,
    "name": "ASAFO",
    "id": 0,
    "trackerIMEI": 0,
    "icons": [
      "https://raw.githubusercontent.com/KKEsty2024/GhanaSites/main/cell%20tower.jpg"
    ]
  },
  {
    "lat": 6.67956,
    "lon": -1.60598833333333,
    "name": "STADIUM",
    "id": 0,
    "trackerIMEI": 0,
    "icons": [
      "https://raw.githubusercontent.com/KKEsty2024/GhanaSites/main/cell%20tower.jpg"
    ]
  },
  {
    "lat": 6.69697833333333,
    "lon": -1.57970833333333,
    "name": "AYIGYA",
    "id": 0,
    "trackerIMEI": 0,
    "icons": [
      "https://raw.githubusercontent.com/KKEsty2024/GhanaSites/main/cell%20tower.jpg"
    ]
  },
  {
    "lat": 6.68923166666667,
    "lon": -1.58569333333333,
    "name": "OFORIKROM2",
    "id": 0,
    "trackerIMEI": 0,
    "icons": [
      "https://raw.githubusercontent.com/KKEsty2024/GhanaSites/main/cell%20tower.jpg"
    ]
  },
  {
    "lat": 6.69650166666667,
    "lon": -1.61740333333333,
    "name": "MARKET4",
    "id": 0,
    "trackerIMEI": 0,
    "icons": [
      "https://raw.githubusercontent.com/KKEsty2024/GhanaSites/main/cell%20tower.jpg"
    ]
  },
  {
    "lat": 6.6983583,
    "lon": -1.6082033,
    "name": "KWATIALINE",
    "id": 0,
    "trackerIMEI": 0,
    "icons": [
      "https://raw.githubusercontent.com/KKEsty2024/GhanaSites/main/cell%20tower.jpg"
    ]
  },
  {
    "lat": 6.69946166666667,
    "lon": -1.59478,
    "name": "ABOABO",
    "id": 0,
    "trackerIMEI": 0,
    "icons": [
      "https://raw.githubusercontent.com/KKEsty2024/GhanaSites/main/cell%20tower.jpg"
    ]
  },
  {
    "lat": 6.69012166666667,
    "lon": -1.66537166666667,
    "name": "KWADASO3",
    "id": 0,
    "trackerIMEI": 0,
    "icons": [
      "https://raw.githubusercontent.com/KKEsty2024/GhanaSites/main/cell%20tower.jpg"
    ]
  },
  {
    "lat": 6.69365166666667,
    "lon": -1.65321333333333,
    "name": "KWADASO2",
    "id": 0,
    "trackerIMEI": 0,
    "icons": [
      "https://raw.githubusercontent.com/KKEsty2024/GhanaSites/main/cell%20tower.jpg"
    ]
  },
  {
    "lat": 6.70836,
    "lon": -1.62687833333333,
    "name": "SOCIALCLUB",
    "id": 0,
    "trackerIMEI": 0,
    "icons": [
      "https://raw.githubusercontent.com/KKEsty2024/GhanaSites/main/cell%20tower.jpg"
    ]
  },
  {
    "lat": 6.72026,
    "lon": -1.59725333333333,
    "name": "KUMAIRPORT",
    "id": 0,
    "trackerIMEI": 0,
    "icons": [
      "https://raw.githubusercontent.com/KKEsty2024/GhanaSites/main/cell%20tower.jpg"
    ]
  },
  {
    "lat": 6.72521166666667,
    "lon": -1.60476833333333,
    "name": "MOSSIZONGO",
    "id": 0,
    "trackerIMEI": 0,
    "icons": [
      "https://raw.githubusercontent.com/KKEsty2024/GhanaSites/main/cell%20tower.jpg"
    ]
  },
  {
    "lat": 6.72836833333333,
    "lon": -1.640235,
    "name": "ANOMANGYE",
    "id": 0,
    "trackerIMEI": 0,
    "icons": [
      "https://raw.githubusercontent.com/KKEsty2024/GhanaSites/main/cell%20tower.jpg"
    ]
  },
  {
    "lat": 6.7310373,
    "lon": -1.6261009,
    "name": "SUAME",
    "id": 0,
    "trackerIMEI": 0,
    "icons": [
      "https://raw.githubusercontent.com/KKEsty2024/GhanaSites/main/cell%20tower.jpg"
    ]
  },
  {
    "lat": 6.74229166666667,
    "lon": -1.60924166666667,
    "name": "TAFOSCHOOL",
    "id": 0,
    "trackerIMEI": 0,
    "icons": [
      "https://raw.githubusercontent.com/KKEsty2024/GhanaSites/main/cell%20tower.jpg"
    ]
  },
  {
    "lat": 6.74554,
    "lon": -1.62460833333333,
    "name": "UGCBREMAN",
    "id": 0,
    "trackerIMEI": 0,
    "icons": [
      "https://raw.githubusercontent.com/KKEsty2024/GhanaSites/main/cell%20tower.jpg"
    ]
  },
  {
    "lat": 6.75527833333333,
    "lon": -1.63777833333333,
    "name": "KRONUM",
    "id": 0,
    "trackerIMEI": 0,
    "icons": [
      "https://raw.githubusercontent.com/KKEsty2024/GhanaSites/main/cell%20tower.jpg"
    ]
  },
  {
    "lat": 6.66274333333333,
    "lon": -1.62669833333333,
    "name": "WESNHYIASO",
    "id": 0,
    "trackerIMEI": 0,
    "icons": [
      "https://raw.githubusercontent.com/KKEsty2024/GhanaSites/main/cell%20tower.jpg"
    ]
  },
  {
    "lat": 6.642435,
    "lon": -1.62203833333333,
    "name": "DABINE",
    "id": 0,
    "trackerIMEI": 0,
    "icons": [
      "https://raw.githubusercontent.com/KKEsty2024/GhanaSites/main/cell%20tower.jpg"
    ]
  },
  {
    "lat": 6.65635833333333,
    "lon": -1.60955166666667,
    "name": "KASSE",
    "id": 0,
    "trackerIMEI": 0,
    "icons": [
      "https://raw.githubusercontent.com/KKEsty2024/GhanaSites/main/cell%20tower.jpg"
    ]
  },
  {
    "lat": 6.68685166666667,
    "lon": -1.60600166666667,
    "name": "ASOKWA2",
    "id": 0,
    "trackerIMEI": 0,
    "icons": [
      "https://raw.githubusercontent.com/KKEsty2024/GhanaSites/main/cell%20tower.jpg"
    ]
  },
  {
    "lat": 6.649025,
    "lon": -1.59172333333333,
    "name": "ATONSU1",
    "id": 0,
    "trackerIMEI": 0,
    "icons": [
      "https://raw.githubusercontent.com/KKEsty2024/GhanaSites/main/cell%20tower.jpg"
    ]
  },
  {
    "lat": 6.66275,
    "lon": -1.56921833333333,
    "name": "GYINASI",
    "id": 0,
    "trackerIMEI": 0,
    "icons": [
      "https://raw.githubusercontent.com/KKEsty2024/GhanaSites/main/cell%20tower.jpg"
    ]
  },
  {
    "lat": 6.68483833333333,
    "lon": -1.57621333333333,
    "name": "KNUST",
    "id": 0,
    "trackerIMEI": 0,
    "icons": [
      "https://raw.githubusercontent.com/KKEsty2024/GhanaSites/main/cell%20tower.jpg"
    ]
  },
  {
    "lat": 6.630955,
    "lon": -1.61568666666667,
    "name": "DABAIN2H53.5VLS",
    "id": 0,
    "trackerIMEI": 0,
    "icons": [
      "https://raw.githubusercontent.com/KKEsty2024/GhanaSites/main/cell%20tower.jpg"
    ]
  },
  {
    "lat": 6.73263166666667,
    "lon": -1.58279333333333,
    "name": "BUOKROM",
    "id": 0,
    "trackerIMEI": 0,
    "icons": [
      "https://raw.githubusercontent.com/KKEsty2024/GhanaSites/main/cell%20tower.jpg"
    ]
  },
  {
    "lat": 6.76788666666667,
    "lon": -1.595435,
    "name": "MEDUMA",
    "id": 0,
    "trackerIMEI": 0,
    "icons": [
      "https://raw.githubusercontent.com/KKEsty2024/GhanaSites/main/cell%20tower.jpg"
    ]
  },
  {
    "lat": 6.69898333333333,
    "lon": -1.70842333333333,
    "name": "ABUAKWA",
    "id": 0,
    "trackerIMEI": 0,
    "icons": [
      "https://raw.githubusercontent.com/KKEsty2024/GhanaSites/main/cell%20tower.jpg"
    ]
  },
  {
    "lat": 6.67085833333333,
    "lon": -1.54238833333333,
    "name": "EMENA",
    "id": 0,
    "trackerIMEI": 0,
    "icons": [
      "https://raw.githubusercontent.com/KKEsty2024/GhanaSites/main/cell%20tower.jpg"
    ]
  },
  {
    "lat": 6.6473979,
    "lon": -1.6097248,
    "name": "KASSE2",
    "id": 0,
    "trackerIMEI": 0,
    "icons": [
      "https://raw.githubusercontent.com/KKEsty2024/GhanaSites/main/cell%20tower.jpg"
    ]
  },
  {
    "lat": 6.65788666666667,
    "lon": -1.584065,
    "name": "GYINYASI2",
    "id": 0,
    "trackerIMEI": 0,
    "icons": [
      "https://raw.githubusercontent.com/KKEsty2024/GhanaSites/main/cell%20tower.jpg"
    ]
  },
  {
    "lat": 6.66307833333333,
    "lon": -1.59998333333333,
    "name": "AHINSAN2",
    "id": 0,
    "trackerIMEI": 0,
    "icons": [
      "https://raw.githubusercontent.com/KKEsty2024/GhanaSites/main/cell%20tower.jpg"
    ]
  },
  {
    "lat": 6.705315,
    "lon": -1.57974666666667,
    "name": "SAWABA",
    "id": 0,
    "trackerIMEI": 0,
    "icons": [
      "https://raw.githubusercontent.com/KKEsty2024/GhanaSites/main/cell%20tower.jpg"
    ]
  },
  {
    "lat": 6.72046,
    "lon": -1.61692833333333,
    "name": "TAFONYIESO",
    "id": 0,
    "trackerIMEI": 0,
    "icons": [
      "https://raw.githubusercontent.com/KKEsty2024/GhanaSites/main/cell%20tower.jpg"
    ]
  },
  {
    "lat": 6.73244166666667,
    "lon": -1.61839333333333,
    "name": "AHENBRONUM",
    "id": 0,
    "trackerIMEI": 0,
    "icons": [
      "https://raw.githubusercontent.com/KKEsty2024/GhanaSites/main/cell%20tower.jpg"
    ]
  },
  {
    "lat": 6.73575333333333,
    "lon": -1.612175,
    "name": "OLDTAFO",
    "id": 0,
    "trackerIMEI": 0,
    "icons": [
      "https://raw.githubusercontent.com/KKEsty2024/GhanaSites/main/cell%20tower.jpg"
    ]
  },
  {
    "lat": 6.72667333333333,
    "lon": -1.64906166666667,
    "name": "ABREPO",
    "id": 0,
    "trackerIMEI": 0,
    "icons": [
      "https://raw.githubusercontent.com/KKEsty2024/GhanaSites/main/cell%20tower.jpg"
    ]
  },
  {
    "lat": 6.72609666666667,
    "lon": -1.63678666666667,
    "name": "MARKO",
    "id": 0,
    "trackerIMEI": 0,
    "icons": [
      "https://raw.githubusercontent.com/KKEsty2024/GhanaSites/main/cell%20tower.jpg"
    ]
  },
  {
    "lat": 6.78659333333333,
    "lon": -1.57506666666667,
    "name": "MANPONGTENG",
    "id": 0,
    "trackerIMEI": 0,
    "icons": [
      "https://raw.githubusercontent.com/KKEsty2024/GhanaSites/main/cell%20tower.jpg"
    ]
  },
  {
    "lat": 6.65732166666667,
    "lon": -1.63568333333333,
    "name": "ADIEMBRA",
    "id": 0,
    "trackerIMEI": 0,
    "icons": [
      "https://raw.githubusercontent.com/KKEsty2024/GhanaSites/main/cell%20tower.jpg"
    ]
  },
  {
    "lat": 6.66783833333333,
    "lon": -1.62062166666667,
    "name": "NYIAESO",
    "id": 0,
    "trackerIMEI": 0,
    "icons": [
      "https://raw.githubusercontent.com/KKEsty2024/GhanaSites/main/cell%20tower.jpg"
    ]
  },
  {
    "lat": 6.68149166666667,
    "lon": -1.59906666666667,
    "name": "AMAKOM",
    "id": 0,
    "trackerIMEI": 0,
    "icons": [
      "https://raw.githubusercontent.com/KKEsty2024/GhanaSites/main/cell%20tower.jpg"
    ]
  },
  {
    "lat": 6.67705333333333,
    "lon": -1.59219,
    "name": "ANLOGA",
    "id": 0,
    "trackerIMEI": 0,
    "icons": [
      "https://raw.githubusercontent.com/KKEsty2024/GhanaSites/main/cell%20tower.jpg"
    ]
  },
  {
    "lat": 6.67553,
    "lon": -1.588585,
    "name": "OLDAHINSAN",
    "id": 0,
    "trackerIMEI": 0,
    "icons": [
      "https://raw.githubusercontent.com/KKEsty2024/GhanaSites/main/cell%20tower.jpg"
    ]
  },
  {
    "lat": 6.68790666666667,
    "lon": -1.59248,
    "name": "OFORIKROM3",
    "id": 0,
    "trackerIMEI": 0,
    "icons": [
      "https://raw.githubusercontent.com/KKEsty2024/GhanaSites/main/cell%20tower.jpg"
    ]
  },
  {
    "lat": 6.69505666666667,
    "lon": -1.59916166666667,
    "name": "ABOABO2",
    "id": 0,
    "trackerIMEI": 0,
    "icons": [
      "https://raw.githubusercontent.com/KKEsty2024/GhanaSites/main/cell%20tower.jpg"
    ]
  },
  {
    "lat": 6.708845,
    "lon": -1.63731833333333,
    "name": "SOSUNTRESO",
    "id": 0,
    "trackerIMEI": 0,
    "icons": [
      "https://raw.githubusercontent.com/KKEsty2024/GhanaSites/main/cell%20tower.jpg"
    ]
  },
  {
    "lat": 6.7078815,
    "lon": -1.6195202,
    "name": "ASHTOWN",
    "id": 0,
    "trackerIMEI": 0,
    "icons": [
      "https://raw.githubusercontent.com/KKEsty2024/GhanaSites/main/cell%20tower.jpg"
    ]
  },
  {
    "lat": 6.70139666666667,
    "lon": -1.623395,
    "name": "KEJETIA",
    "id": 0,
    "trackerIMEI": 0,
    "icons": [
      "https://raw.githubusercontent.com/KKEsty2024/GhanaSites/main/cell%20tower.jpg"
    ]
  },
  {
    "lat": 6.696025,
    "lon": -1.613035,
    "name": "YELEWA",
    "id": 0,
    "trackerIMEI": 0,
    "icons": [
      "https://raw.githubusercontent.com/KKEsty2024/GhanaSites/main/cell%20tower.jpg"
    ]
  },
  {
    "lat": 6.695185,
    "lon": -1.62187666666667,
    "name": "ADUM3",
    "id": 0,
    "trackerIMEI": 0,
    "icons": [
      "https://raw.githubusercontent.com/KKEsty2024/GhanaSites/main/cell%20tower.jpg"
    ]
  },
  {
    "lat": 6.63369833333333,
    "lon": -1.627355,
    "name": "DABINE3",
    "id": 0,
    "trackerIMEI": 0,
    "icons": [
      "https://raw.githubusercontent.com/KKEsty2024/GhanaSites/main/cell%20tower.jpg"
    ]
  },
  {
    "lat": 6.66369333333333,
    "lon": -1.65344333333333,
    "name": "WOMASE2",
    "id": 0,
    "trackerIMEI": 0,
    "icons": [
      "https://raw.githubusercontent.com/KKEsty2024/GhanaSites/main/cell%20tower.jpg"
    ]
  },
  {
    "lat": 6.67851666666667,
    "lon": -1.548545,
    "name": "AYIDUASE2",
    "id": 0,
    "trackerIMEI": 0,
    "icons": [
      "https://raw.githubusercontent.com/KKEsty2024/GhanaSites/main/cell%20tower.jpg"
    ]
  },
  {
    "lat": 6.75918333333333,
    "lon": -1.63017666666667,
    "name": "KWAPRA",
    "id": 0,
    "trackerIMEI": 0,
    "icons": [
      "https://raw.githubusercontent.com/KKEsty2024/GhanaSites/main/cell%20tower.jpg"
    ]
  },
  {
    "lat": 6.66775333333333,
    "lon": -1.584605,
    "name": "KNUST2",
    "id": 0,
    "trackerIMEI": 0,
    "icons": [
      "https://raw.githubusercontent.com/KKEsty2024/GhanaSites/main/cell%20tower.jpg"
    ]
  },
  {
    "lat": 6.771305,
    "lon": -1.58257333333333,
    "name": "FAWADE",
    "id": 0,
    "trackerIMEI": 0,
    "icons": [
      "https://raw.githubusercontent.com/KKEsty2024/GhanaSites/main/cell%20tower.jpg"
    ]
  },
  {
    "lat": 6.65701833333333,
    "lon": -1.61931666666667,
    "name": "AHODWO",
    "id": 0,
    "trackerIMEI": 0,
    "icons": [
      "https://raw.githubusercontent.com/KKEsty2024/GhanaSites/main/cell%20tower.jpg"
    ]
  },
  {
    "lat": 6.67249666666667,
    "lon": -1.628925,
    "name": "NHYIAESO2",
    "id": 0,
    "trackerIMEI": 0,
    "icons": [
      "https://raw.githubusercontent.com/KKEsty2024/GhanaSites/main/cell%20tower.jpg"
    ]
  },
  {
    "lat": 6.63896,
    "lon": -1.60598333333333,
    "name": "KAASE3",
    "id": 0,
    "trackerIMEI": 0,
    "icons": [
      "https://raw.githubusercontent.com/KKEsty2024/GhanaSites/main/cell%20tower.jpg"
    ]
  },
  {
    "lat": 6.69871666666667,
    "lon": -1.61563,
    "name": "ALLABAR",
    "id": 0,
    "trackerIMEI": 0,
    "icons": [
      "https://raw.githubusercontent.com/KKEsty2024/GhanaSites/main/cell%20tower.jpg"
    ]
  },
  {
    "lat": 6.71468833333333,
    "lon": -1.67405833333333,
    "name": "APESIKA",
    "id": 0,
    "trackerIMEI": 0,
    "icons": [
      "https://raw.githubusercontent.com/KKEsty2024/GhanaSites/main/cell%20tower.jpg"
    ]
  },
  {
    "lat": 6.751485,
    "lon": -1.64895833333333,
    "name": "KRONUM2",
    "id": 0,
    "trackerIMEI": 0,
    "icons": [
      "https://raw.githubusercontent.com/KKEsty2024/GhanaSites/main/cell%20tower.jpg"
    ]
  },
  {
    "lat": 6.66533,
    "lon": -1.61504833333333,
    "name": "ADIEBEBA",
    "id": 0,
    "trackerIMEI": 0,
    "icons": [
      "https://raw.githubusercontent.com/KKEsty2024/GhanaSites/main/cell%20tower.jpg"
    ]
  },
  {
    "lat": 6.73313,
    "lon": -1.64238,
    "name": "ABUSUAKRUWA",
    "id": 0,
    "trackerIMEI": 0,
    "icons": [
      "https://raw.githubusercontent.com/KKEsty2024/GhanaSites/main/cell%20tower.jpg"
    ]
  },
  {
    "lat": 6.76230333333333,
    "lon": -1.61804,
    "name": "ATIMATIM2",
    "id": 0,
    "trackerIMEI": 0,
    "icons": [
      "https://raw.githubusercontent.com/KKEsty2024/GhanaSites/main/cell%20tower.jpg"
    ]
  },
  {
    "lat": 6.69273333333333,
    "lon": -1.62805,
    "name": "UADDARA",
    "id": 0,
    "trackerIMEI": 0,
    "icons": [
      "https://raw.githubusercontent.com/KKEsty2024/GhanaSites/main/cell%20tower.jpg"
    ]
  },
  {
    "lat": 6.73199166666667,
    "lon": -1.59113333333333,
    "name": "BUOKROM3",
    "id": 0,
    "trackerIMEI": 0,
    "icons": [
      "https://raw.githubusercontent.com/KKEsty2024/GhanaSites/main/cell%20tower.jpg"
    ]
  },
  {
    "lat": 6.65607833333333,
    "lon": -1.57265333333333,
    "name": "GYINASI3",
    "id": 0,
    "trackerIMEI": 0,
    "icons": [
      "https://raw.githubusercontent.com/KKEsty2024/GhanaSites/main/cell%20tower.jpg"
    ]
  },
  {
    "lat": 6.72149833333333,
    "lon": -1.540105,
    "name": "PARKOSO600311",
    "id": 0,
    "trackerIMEI": 0,
    "icons": [
      "https://raw.githubusercontent.com/KKEsty2024/GhanaSites/main/cell%20tower.jpg"
    ]
  },
  {
    "lat": 6.69729833333333,
    "lon": -1.54006,
    "name": "FUMESUA2",
    "id": 0,
    "trackerIMEI": 0,
    "icons": [
      "https://raw.githubusercontent.com/KKEsty2024/GhanaSites/main/cell%20tower.jpg"
    ]
  },
  {
    "lat": 6.72541333333333,
    "lon": -1.57495333333333,
    "name": "SEPEDOTE",
    "id": 0,
    "trackerIMEI": 0,
    "icons": [
      "https://raw.githubusercontent.com/KKEsty2024/GhanaSites/main/cell%20tower.jpg"
    ]
  },
  {
    "lat": 6.70125833333333,
    "lon": -1.65178666666667,
    "name": "KWADASO5",
    "id": 0,
    "trackerIMEI": 0,
    "icons": [
      "https://raw.githubusercontent.com/KKEsty2024/GhanaSites/main/cell%20tower.jpg"
    ]
  },
  {
    "lat": 6.72157833333333,
    "lon": -1.60838333333333,
    "name": "TFONYSO2",
    "id": 0,
    "trackerIMEI": 0,
    "icons": [
      "https://raw.githubusercontent.com/KKEsty2024/GhanaSites/main/cell%20tower.jpg"
    ]
  },
  {
    "lat": 6.69448666666667,
    "lon": -1.620085,
    "name": "CENTRALMKT",
    "id": 0,
    "trackerIMEI": 0,
    "icons": [
      "https://raw.githubusercontent.com/KKEsty2024/GhanaSites/main/cell%20tower.jpg"
    ]
  },
  {
    "lat": 6.67703166666667,
    "lon": -1.50614333333333,
    "name": "DOMEABRAKS",
    "id": 0,
    "trackerIMEI": 0,
    "icons": [
      "https://raw.githubusercontent.com/KKEsty2024/GhanaSites/main/cell%20tower.jpg"
    ]
  },
  {
    "lat": 6.69821,
    "lon": -1.60184833333333,
    "name": "ABOABO3",
    "id": 0,
    "trackerIMEI": 0,
    "icons": [
      "https://raw.githubusercontent.com/KKEsty2024/GhanaSites/main/cell%20tower.jpg"
    ]
  },
  {
    "lat": 6.65428166666667,
    "lon": -1.58521833333333,
    "name": "ATONSO4",
    "id": 0,
    "trackerIMEI": 0,
    "icons": [
      "https://raw.githubusercontent.com/KKEsty2024/GhanaSites/main/cell%20tower.jpg"
    ]
  },
  {
    "lat": 6.69886166666667,
    "lon": -1.625375,
    "name": "KEJETIA2",
    "id": 0,
    "trackerIMEI": 0,
    "icons": [
      "https://raw.githubusercontent.com/KKEsty2024/GhanaSites/main/cell%20tower.jpg"
    ]
  },
  {
    "lat": 6.65506833333333,
    "lon": -1.59919833333333,
    "name": "KAASE4",
    "id": 0,
    "trackerIMEI": 0,
    "icons": [
      "https://raw.githubusercontent.com/KKEsty2024/GhanaSites/main/cell%20tower.jpg"
    ]
  },
  {
    "lat": 6.66538166666667,
    "lon": -1.63683833333333,
    "name": "TUCKSI",
    "id": 0,
    "trackerIMEI": 0,
    "icons": [
      "https://raw.githubusercontent.com/KKEsty2024/GhanaSites/main/cell%20tower.jpg"
    ]
  },
  {
    "lat": 6.645775,
    "lon": -1.63950333333333,
    "name": "ANYINAMAR",
    "id": 0,
    "trackerIMEI": 0,
    "icons": [
      "https://raw.githubusercontent.com/KKEsty2024/GhanaSites/main/cell%20tower.jpg"
    ]
  },
  {
    "lat": 6.71080833333333,
    "lon": -1.70957,
    "name": "ABUAKWA2",
    "id": 0,
    "trackerIMEI": 0,
    "icons": [
      "https://raw.githubusercontent.com/KKEsty2024/GhanaSites/main/cell%20tower.jpg"
    ]
  },
  {
    "lat": 6.71716,
    "lon": -1.62333166666667,
    "name": "TAFOCMTRY",
    "id": 0,
    "trackerIMEI": 0,
    "icons": [
      "https://raw.githubusercontent.com/KKEsty2024/GhanaSites/main/cell%20tower.jpg"
    ]
  },
  {
    "lat": 6.737615,
    "lon": -1.60276166666667,
    "name": "TAFOMPASEM",
    "id": 0,
    "trackerIMEI": 0,
    "icons": [
      "https://raw.githubusercontent.com/KKEsty2024/GhanaSites/main/cell%20tower.jpg"
    ]
  },
  {
    "lat": 6.62498333333333,
    "lon": -1.62211666666667,
    "name": "SOKOBAN",
    "id": 0,
    "trackerIMEI": 0,
    "icons": [
      "https://raw.githubusercontent.com/KKEsty2024/GhanaSites/main/cell%20tower.jpg"
    ]
  },
  {
    "lat": 6.76756833333333,
    "lon": -1.58627833333333,
    "name": "MEDUMA2",
    "id": 0,
    "trackerIMEI": 0,
    "icons": [
      "https://raw.githubusercontent.com/KKEsty2024/GhanaSites/main/cell%20tower.jpg"
    ]
  },
  {
    "lat": 6.69789666666667,
    "lon": -1.66535333333333,
    "name": "ASUOYEBOA2",
    "id": 0,
    "trackerIMEI": 0,
    "icons": [
      "https://raw.githubusercontent.com/KKEsty2024/GhanaSites/main/cell%20tower.jpg"
    ]
  },
  {
    "lat": 6.68720333333333,
    "lon": -1.570185,
    "name": "KNUSTAYIGYA",
    "id": 0,
    "trackerIMEI": 0,
    "icons": [
      "https://raw.githubusercontent.com/KKEsty2024/GhanaSites/main/cell%20tower.jpg"
    ]
  },
  {
    "lat": 6.65194333333333,
    "lon": -1.645125,
    "name": "SANTASI2",
    "id": 0,
    "trackerIMEI": 0,
    "icons": [
      "https://raw.githubusercontent.com/KKEsty2024/GhanaSites/main/cell%20tower.jpg"
    ]
  },
  {
    "lat": 6.70966166666667,
    "lon": -1.66565333333333,
    "name": "4BNBARAKS",
    "id": 0,
    "trackerIMEI": 0,
    "icons": [
      "https://raw.githubusercontent.com/KKEsty2024/GhanaSites/main/cell%20tower.jpg"
    ]
  },
  {
    "lat": 6.73084666666667,
    "lon": -1.61244166666667,
    "name": "TAFOZONGO",
    "id": 0,
    "trackerIMEI": 0,
    "icons": [
      "https://raw.githubusercontent.com/KKEsty2024/GhanaSites/main/cell%20tower.jpg"
    ]
  },
  {
    "lat": 5.59448,
    "lon": -0.2208,
    "name": "FIDELITYBANKHQ",
    "id": 0,
    "trackerIMEI": 0,
    "icons": [
      "https://raw.githubusercontent.com/KKEsty2024/GhanaSites/main/cell%20tower.jpg"
    ]
  },
  {
    "lat": 6.74302833333333,
    "lon": -1.600695,
    "name": "PANKROEST",
    "id": 0,
    "trackerIMEI": 0,
    "icons": [
      "https://raw.githubusercontent.com/KKEsty2024/GhanaSites/main/cell%20tower.jpg"
    ]
  },
  {
    "lat": 6.74013166666667,
    "lon": -1.631635,
    "name": "BREMANG",
    "id": 0,
    "trackerIMEI": 0,
    "icons": [
      "https://raw.githubusercontent.com/KKEsty2024/GhanaSites/main/cell%20tower.jpg"
    ]
  },
  {
    "lat": 6.75329666666667,
    "lon": -1.58846,
    "name": "AHWIAOVSEA",
    "id": 0,
    "trackerIMEI": 0,
    "icons": [
      "https://raw.githubusercontent.com/KKEsty2024/GhanaSites/main/cell%20tower.jpg"
    ]
  },
  {
    "lat": 6.73133333333333,
    "lon": -1.63653333333333,
    "name": "MAAKRO2",
    "id": 0,
    "trackerIMEI": 0,
    "icons": [
      "https://raw.githubusercontent.com/KKEsty2024/GhanaSites/main/cell%20tower.jpg"
    ]
  },
  {
    "lat": 6.670235,
    "lon": -1.64771166666667,
    "name": "SANTASIRBT",
    "id": 0,
    "trackerIMEI": 0,
    "icons": [
      "https://raw.githubusercontent.com/KKEsty2024/GhanaSites/main/cell%20tower.jpg"
    ]
  },
  {
    "lat": 6.67172666666667,
    "lon": -1.59854,
    "name": "ASOKWA3",
    "id": 0,
    "trackerIMEI": 0,
    "icons": [
      "https://raw.githubusercontent.com/KKEsty2024/GhanaSites/main/cell%20tower.jpg"
    ]
  },
  {
    "lat": 6.72445,
    "lon": -1.558435,
    "name": "BUABAI",
    "id": 0,
    "trackerIMEI": 0,
    "icons": [
      "https://raw.githubusercontent.com/KKEsty2024/GhanaSites/main/cell%20tower.jpg"
    ]
  },
  {
    "lat": 6.70415666666667,
    "lon": -1.56836,
    "name": "ASOKOREMPG",
    "id": 0,
    "trackerIMEI": 0,
    "icons": [
      "https://raw.githubusercontent.com/KKEsty2024/GhanaSites/main/cell%20tower.jpg"
    ]
  },
  {
    "lat": 6.70729,
    "lon": -1.64655333333333,
    "name": "ADWOATO",
    "id": 0,
    "trackerIMEI": 0,
    "icons": [
      "https://raw.githubusercontent.com/KKEsty2024/GhanaSites/main/cell%20tower.jpg"
    ]
  },
  {
    "lat": 6.77559,
    "lon": -1.59729333333333,
    "name": "MEDUMA3",
    "id": 0,
    "trackerIMEI": 0,
    "icons": [
      "https://raw.githubusercontent.com/KKEsty2024/GhanaSites/main/cell%20tower.jpg"
    ]
  },
  {
    "lat": 6.72143,
    "lon": -1.66406666666667,
    "name": "ABRPOKOKSO",
    "id": 0,
    "trackerIMEI": 0,
    "icons": [
      "https://raw.githubusercontent.com/KKEsty2024/GhanaSites/main/cell%20tower.jpg"
    ]
  },
  {
    "lat": 6.68331,
    "lon": -1.58670666666667,
    "name": "DECABIN",
    "id": 0,
    "trackerIMEI": 0,
    "icons": [
      "https://raw.githubusercontent.com/KKEsty2024/GhanaSites/main/cell%20tower.jpg"
    ]
  },
  {
    "lat": 6.710065,
    "lon": -1.53897,
    "name": "APERADE",
    "id": 0,
    "trackerIMEI": 0,
    "icons": [
      "https://raw.githubusercontent.com/KKEsty2024/GhanaSites/main/cell%20tower.jpg"
    ]
  },
  {
    "lat": 6.67356333333333,
    "lon": -1.553405,
    "name": "AYDUASE3",
    "id": 0,
    "trackerIMEI": 0,
    "icons": [
      "https://raw.githubusercontent.com/KKEsty2024/GhanaSites/main/cell%20tower.jpg"
    ]
  },
  {
    "lat": 6.71637833333333,
    "lon": -1.61115333333333,
    "name": "KROFOUM",
    "id": 0,
    "trackerIMEI": 0,
    "icons": [
      "https://raw.githubusercontent.com/KKEsty2024/GhanaSites/main/cell%20tower.jpg"
    ]
  },
  {
    "lat": 6.6927,
    "lon": -1.718065,
    "name": "ABUAKWA3",
    "id": 0,
    "trackerIMEI": 0,
    "icons": [
      "https://raw.githubusercontent.com/KKEsty2024/GhanaSites/main/cell%20tower.jpg"
    ]
  },
  {
    "lat": 6.65541,
    "lon": -1.54669,
    "name": "DEDUAKO",
    "id": 0,
    "trackerIMEI": 0,
    "icons": [
      "https://raw.githubusercontent.com/KKEsty2024/GhanaSites/main/cell%20tower.jpg"
    ]
  },
  {
    "lat": 6.74843666666667,
    "lon": -1.60469166666667,
    "name": "PANKRONO2",
    "id": 0,
    "trackerIMEI": 0,
    "icons": [
      "https://raw.githubusercontent.com/KKEsty2024/GhanaSites/main/cell%20tower.jpg"
    ]
  },
  {
    "lat": 6.746585,
    "lon": -1.65442166666667,
    "name": "KRONUM3",
    "id": 0,
    "trackerIMEI": 0,
    "icons": [
      "https://raw.githubusercontent.com/KKEsty2024/GhanaSites/main/cell%20tower.jpg"
    ]
  },
  {
    "lat": 6.72563666666667,
    "lon": -1.64429666666667,
    "name": "ANOMANGYE2",
    "id": 0,
    "trackerIMEI": 0,
    "icons": [
      "https://raw.githubusercontent.com/KKEsty2024/GhanaSites/main/cell%20tower.jpg"
    ]
  },
  {
    "lat": 6.69732166666667,
    "lon": -1.63257166666667,
    "name": "KATHHOSPTL",
    "id": 0,
    "trackerIMEI": 0,
    "icons": [
      "https://raw.githubusercontent.com/KKEsty2024/GhanaSites/main/cell%20tower.jpg"
    ]
  },
  {
    "lat": 6.723955,
    "lon": -1.61257666666667,
    "name": "TAFOHOSPTL",
    "id": 0,
    "trackerIMEI": 0,
    "icons": [
      "https://raw.githubusercontent.com/KKEsty2024/GhanaSites/main/cell%20tower.jpg"
    ]
  },
  {
    "lat": 6.66693,
    "lon": -1.606075,
    "name": "ASKWAPOLIC",
    "id": 0,
    "trackerIMEI": 0,
    "icons": [
      "https://raw.githubusercontent.com/KKEsty2024/GhanaSites/main/cell%20tower.jpg"
    ]
  },
  {
    "lat": 5.6627975,
    "lon": 0.0103268,
    "name": "TEMINDUTRY",
    "id": 0,
    "trackerIMEI": 0,
    "icons": [
      "https://raw.githubusercontent.com/KKEsty2024/GhanaSites/main/cell%20tower.jpg"
    ]
  },
  {
    "lat": 5.6828017,
    "lon": -0.016265,
    "name": "TEMA1",
    "id": 0,
    "trackerIMEI": 0,
    "icons": [
      "https://raw.githubusercontent.com/KKEsty2024/GhanaSites/main/cell%20tower.jpg"
    ]
  },
  {
    "lat": 5.6253283,
    "lon": -0.0192617,
    "name": "TEMASSNIT",
    "id": 0,
    "trackerIMEI": 0,
    "icons": [
      "https://raw.githubusercontent.com/KKEsty2024/GhanaSites/main/cell%20tower.jpg"
    ]
  },
  {
    "lat": 5.707755,
    "lon": -0.045935,
    "name": "ASHAYMAN1",
    "id": 0,
    "trackerIMEI": 0,
    "icons": [
      "https://raw.githubusercontent.com/KKEsty2024/GhanaSites/main/cell%20tower.jpg"
    ]
  },
  {
    "lat": 5.6560006,
    "lon": -0.0159287,
    "name": "TEMACOMM4",
    "id": 0,
    "trackerIMEI": 0,
    "icons": [
      "https://raw.githubusercontent.com/KKEsty2024/GhanaSites/main/cell%20tower.jpg"
    ]
  },
  {
    "lat": 5.6540935,
    "lon": 0.0185213,
    "name": "VALCO",
    "id": 0,
    "trackerIMEI": 0,
    "icons": [
      "https://raw.githubusercontent.com/KKEsty2024/GhanaSites/main/cell%20tower.jpg"
    ]
  },
  {
    "lat": 5.64051024210848,
    "lon": -0.0664844015818371,
    "name": "COMM18",
    "id": 0,
    "trackerIMEI": 0,
    "icons": [
      "https://raw.githubusercontent.com/KKEsty2024/GhanaSites/main/cell%20tower.jpg"
    ]
  },
  {
    "lat": 5.64262726845996,
    "lon": -0.114542200068012,
    "name": "SPINTEX",
    "id": 0,
    "trackerIMEI": 0,
    "icons": [
      "https://raw.githubusercontent.com/KKEsty2024/GhanaSites/main/cell%20tower.jpg"
    ]
  },
  {
    "lat": 5.6482416,
    "lon": 0.0209683,
    "name": "TEMANEWTOWN",
    "id": 0,
    "trackerIMEI": 0,
    "icons": [
      "https://raw.githubusercontent.com/KKEsty2024/GhanaSites/main/cell%20tower.jpg"
    ]
  },
  {
    "lat": 5.6382906,
    "lon": -0.000248,
    "name": "TEMAPORTLS",
    "id": 0,
    "trackerIMEI": 0,
    "icons": [
      "https://raw.githubusercontent.com/KKEsty2024/GhanaSites/main/cell%20tower.jpg"
    ]
  },
  {
    "lat": 5.6471349,
    "lon": -0.000578,
    "name": "TEMAMARKET",
    "id": 0,
    "trackerIMEI": 0,
    "icons": [
      "https://raw.githubusercontent.com/KKEsty2024/GhanaSites/main/cell%20tower.jpg"
    ]
  },
  {
    "lat": 5.677275,
    "lon": -0.12328,
    "name": "NMAIDZORN",
    "id": 0,
    "trackerIMEI": 0,
    "icons": [
      "https://raw.githubusercontent.com/KKEsty2024/GhanaSites/main/cell%20tower.jpg"
    ]
  },
  {
    "lat": 5.65014572004006,
    "lon": -0.0873629258650251,
    "name": "SPINTEX2",
    "id": 0,
    "trackerIMEI": 0,
    "icons": [
      "https://raw.githubusercontent.com/KKEsty2024/GhanaSites/main/cell%20tower.jpg"
    ]
  },
  {
    "lat": 5.5821444,
    "lon": -0.1176559,
    "name": "TESHIE2",
    "id": 0,
    "trackerIMEI": 0,
    "icons": [
      "https://raw.githubusercontent.com/KKEsty2024/GhanaSites/main/cell%20tower.jpg"
    ]
  },
  {
    "lat": 5.60728772667647,
    "lon": -0.0765943371383123,
    "name": "NUNGUA2",
    "id": 0,
    "trackerIMEI": 0,
    "icons": [
      "https://raw.githubusercontent.com/KKEsty2024/GhanaSites/main/cell%20tower.jpg"
    ]
  },
  {
    "lat": 5.7085828,
    "lon": -0.0466966,
    "name": "ASHLEBANO2H50.5V",
    "id": 0,
    "trackerIMEI": 0,
    "icons": [
      "https://raw.githubusercontent.com/KKEsty2024/GhanaSites/main/cell%20tower.jpg"
    ]
  },
  {
    "lat": 5.681985,
    "lon": -0.0592637,
    "name": "ASHAYMAN2",
    "id": 0,
    "trackerIMEI": 0,
    "icons": [
      "https://raw.githubusercontent.com/KKEsty2024/GhanaSites/main/cell%20tower.jpg"
    ]
  },
  {
    "lat": 5.6591056,
    "lon": -0.0334179,
    "name": "COMM11/12",
    "id": 0,
    "trackerIMEI": 0,
    "icons": [
      "https://raw.githubusercontent.com/KKEsty2024/GhanaSites/main/cell%20tower.jpg"
    ]
  },
  {
    "lat": 5.67292,
    "lon": -0.0159533,
    "name": "COMM9",
    "id": 0,
    "trackerIMEI": 0,
    "icons": [
      "https://raw.githubusercontent.com/KKEsty2024/GhanaSites/main/cell%20tower.jpg"
    ]
  },
  {
    "lat": 5.7243044,
    "lon": -0.011009,
    "name": "KAKASUNAKA1",
    "id": 0,
    "trackerIMEI": 0,
    "icons": [
      "https://raw.githubusercontent.com/KKEsty2024/GhanaSites/main/cell%20tower.jpg"
    ]
  },
  {
    "lat": 5.649304,
    "lon": 0.0032713,
    "name": "TEMAINDUSTRY3",
    "id": 0,
    "trackerIMEI": 0,
    "icons": [
      "https://raw.githubusercontent.com/KKEsty2024/GhanaSites/main/cell%20tower.jpg"
    ]
  },
  {
    "lat": 5.6412398,
    "lon": -0.0071334,
    "name": "TEMATDC",
    "id": 0,
    "trackerIMEI": 0,
    "icons": [
      "https://raw.githubusercontent.com/KKEsty2024/GhanaSites/main/cell%20tower.jpg"
    ]
  },
  {
    "lat": 5.6253867,
    "lon": -0.0130083,
    "name": "TEMAHARBOUR",
    "id": 0,
    "trackerIMEI": 0,
    "icons": [
      "https://raw.githubusercontent.com/KKEsty2024/GhanaSites/main/cell%20tower.jpg"
    ]
  },
  {
    "lat": 5.632505,
    "lon": -0.0186683,
    "name": "TEMACOM2B",
    "id": 0,
    "trackerIMEI": 0,
    "icons": [
      "https://raw.githubusercontent.com/KKEsty2024/GhanaSites/main/cell%20tower.jpg"
    ]
  },
  {
    "lat": 5.6667317,
    "lon": -0.0119467,
    "name": "TEMACOMM7",
    "id": 0,
    "trackerIMEI": 0,
    "icons": [
      "https://raw.githubusercontent.com/KKEsty2024/GhanaSites/main/cell%20tower.jpg"
    ]
  },
  {
    "lat": 5.7209171,
    "lon": 0.0494893,
    "name": "ASHAYMAN5",
    "id": 0,
    "trackerIMEI": 0,
    "icons": [
      "https://raw.githubusercontent.com/KKEsty2024/GhanaSites/main/cell%20tower.jpg"
    ]
  },
  {
    "lat": 5.6710626,
    "lon": -0.0226262,
    "name": "TEMACOM11",
    "id": 0,
    "trackerIMEI": 0,
    "icons": [
      "https://raw.githubusercontent.com/KKEsty2024/GhanaSites/main/cell%20tower.jpg"
    ]
  },
  {
    "lat": 5.7317931,
    "lon": 0.0265243,
    "name": "ASHAIMARBT",
    "id": 0,
    "trackerIMEI": 0,
    "icons": [
      "https://raw.githubusercontent.com/KKEsty2024/GhanaSites/main/cell%20tower.jpg"
    ]
  },
  {
    "lat": 5.7008628,
    "lon": -0.0548493,
    "name": "ASHAIMAN3",
    "id": 0,
    "trackerIMEI": 0,
    "icons": [
      "https://raw.githubusercontent.com/KKEsty2024/GhanaSites/main/cell%20tower.jpg"
    ]
  },
  {
    "lat": 5.5944902,
    "lon": -0.1099106,
    "name": "TSUIBLEO1",
    "id": 0,
    "trackerIMEI": 0,
    "icons": [
      "https://raw.githubusercontent.com/KKEsty2024/GhanaSites/main/cell%20tower.jpg"
    ]
  },
  {
    "lat": 5.59681,
    "lon": -0.0863333333333333,
    "name": "NUNGUAC5",
    "id": 0,
    "trackerIMEI": 0,
    "icons": [
      "https://raw.githubusercontent.com/KKEsty2024/GhanaSites/main/cell%20tower.jpg"
    ]
  },
  {
    "lat": 5.62032625842996,
    "lon": -0.0678735184267368,
    "name": "SAKUMONO2",
    "id": 0,
    "trackerIMEI": 0,
    "icons": [
      "https://raw.githubusercontent.com/KKEsty2024/GhanaSites/main/cell%20tower.jpg"
    ]
  },
  {
    "lat": 5.61572831496392,
    "lon": -0.0863716340542647,
    "name": "NUNGUABOADE",
    "id": 0,
    "trackerIMEI": 0,
    "icons": [
      "https://raw.githubusercontent.com/KKEsty2024/GhanaSites/main/cell%20tower.jpg"
    ]
  },
  {
    "lat": 5.63712374431979,
    "lon": -0.0901423105118719,
    "name": "BAATSONA2",
    "id": 0,
    "trackerIMEI": 0,
    "icons": [
      "https://raw.githubusercontent.com/KKEsty2024/GhanaSites/main/cell%20tower.jpg"
    ]
  },
  {
    "lat": 5.62440389225142,
    "lon": -0.117732367556913,
    "name": "SPINTEX3",
    "id": 0,
    "trackerIMEI": 0,
    "icons": [
      "https://raw.githubusercontent.com/KKEsty2024/GhanaSites/main/cell%20tower.jpg"
    ]
  },
  {
    "lat": 5.7376978,
    "lon": -0.0200821,
    "name": "KAKASUNAKA2",
    "id": 0,
    "trackerIMEI": 0,
    "icons": [
      "https://raw.githubusercontent.com/KKEsty2024/GhanaSites/main/cell%20tower.jpg"
    ]
  },
  {
    "lat": 5.6428188,
    "lon": 0.0070671,
    "name": "UNILEVER",
    "id": 0,
    "trackerIMEI": 0,
    "icons": [
      "https://raw.githubusercontent.com/KKEsty2024/GhanaSites/main/cell%20tower.jpg"
    ]
  },
  {
    "lat": 5.715026,
    "lon": -0.0247512,
    "name": "TEMACOM22",
    "id": 0,
    "trackerIMEI": 0,
    "icons": [
      "https://raw.githubusercontent.com/KKEsty2024/GhanaSites/main/cell%20tower.jpg"
    ]
  },
  {
    "lat": 5.6120929,
    "lon": -0.1149696,
    "name": "TSUIBLEOO2",
    "id": 0,
    "trackerIMEI": 0,
    "icons": [
      "https://raw.githubusercontent.com/KKEsty2024/GhanaSites/main/cell%20tower.jpg"
    ]
  },
  {
    "lat": 5.7016961,
    "lon": -0.0341549,
    "name": "ASHIAMAN4LS",
    "id": 0,
    "trackerIMEI": 0,
    "icons": [
      "https://raw.githubusercontent.com/KKEsty2024/GhanaSites/main/cell%20tower.jpg"
    ]
  },
  {
    "lat": 5.6323544,
    "lon": -0.0746182,
    "name": "LASHIBI2LS",
    "id": 0,
    "trackerIMEI": 0,
    "icons": [
      "https://raw.githubusercontent.com/KKEsty2024/GhanaSites/main/cell%20tower.jpg"
    ]
  },
  {
    "lat": 5.6032282,
    "lon": -0.0808298,
    "name": "NUNGUA3H50.5V",
    "id": 0,
    "trackerIMEI": 0,
    "icons": [
      "https://raw.githubusercontent.com/KKEsty2024/GhanaSites/main/cell%20tower.jpg"
    ]
  },
  {
    "lat": 5.63272453615702,
    "lon": -0.139999246969301,
    "name": "SPINTEXPAP",
    "id": 0,
    "trackerIMEI": 0,
    "icons": [
      "https://raw.githubusercontent.com/KKEsty2024/GhanaSites/main/cell%20tower.jpg"
    ]
  },
  {
    "lat": 5.62639655935675,
    "lon": -0.126264775550178,
    "name": "REGIMANUEL",
    "id": 0,
    "trackerIMEI": 0,
    "icons": [
      "https://raw.githubusercontent.com/KKEsty2024/GhanaSites/main/cell%20tower.jpg"
    ]
  },
  {
    "lat": 5.6994033,
    "lon": -0.0420818,
    "name": "ASHJERICO",
    "id": 0,
    "trackerIMEI": 0,
    "icons": [
      "https://raw.githubusercontent.com/KKEsty2024/GhanaSites/main/cell%20tower.jpg"
    ]
  },
  {
    "lat": 5.720526,
    "lon": 0.0486822,
    "name": "AFARIWASTNLS",
    "id": 0,
    "trackerIMEI": 0,
    "icons": [
      "https://raw.githubusercontent.com/KKEsty2024/GhanaSites/main/cell%20tower.jpg"
    ]
  },
  {
    "lat": 5.5811998,
    "lon": -0.1082999,
    "name": "TESIDONSIA",
    "id": 0,
    "trackerIMEI": 0,
    "icons": [
      "https://raw.githubusercontent.com/KKEsty2024/GhanaSites/main/cell%20tower.jpg"
    ]
  },
  {
    "lat": 5.7140724,
    "lon": -0.0438641,
    "name": "ASHLEBANON",
    "id": 0,
    "trackerIMEI": 0,
    "icons": [
      "https://raw.githubusercontent.com/KKEsty2024/GhanaSites/main/cell%20tower.jpg"
    ]
  },
  {
    "lat": 5.65718232223589,
    "lon": -0.0749395234100364,
    "name": "TEMACOM20",
    "id": 0,
    "trackerIMEI": 0,
    "icons": [
      "https://raw.githubusercontent.com/KKEsty2024/GhanaSites/main/cell%20tower.jpg"
    ]
  },
  {
    "lat": 5.6804251,
    "lon": 0.0014209,
    "name": "TINDUSTRY4",
    "id": 0,
    "trackerIMEI": 0,
    "icons": [
      "https://raw.githubusercontent.com/KKEsty2024/GhanaSites/main/cell%20tower.jpg"
    ]
  },
  {
    "lat": 5.6568199,
    "lon": 0.0235374,
    "name": "TINDUSTRY5",
    "id": 0,
    "trackerIMEI": 0,
    "icons": [
      "https://raw.githubusercontent.com/KKEsty2024/GhanaSites/main/cell%20tower.jpg"
    ]
  },
  {
    "lat": 5.6423484,
    "lon": -0.015483,
    "name": "TEMACOM5",
    "id": 0,
    "trackerIMEI": 0,
    "icons": [
      "https://raw.githubusercontent.com/KKEsty2024/GhanaSites/main/cell%20tower.jpg"
    ]
  },
  {
    "lat": 5.73888,
    "lon": 0.011345,
    "name": "SAKIMAN",
    "id": 0,
    "trackerIMEI": 0,
    "icons": [
      "https://raw.githubusercontent.com/KKEsty2024/GhanaSites/main/cell%20tower.jpg"
    ]
  },
  {
    "lat": 5.69110273,
    "lon": 0.05241292,
    "name": "KPONE",
    "id": 0,
    "trackerIMEI": 0,
    "icons": [
      "https://raw.githubusercontent.com/KKEsty2024/GhanaSites/main/cell%20tower.jpg"
    ]
  },
  {
    "lat": 5.71715321,
    "lon": 0.01493905,
    "name": "KPONEJUNCTION",
    "id": 0,
    "trackerIMEI": 0,
    "icons": [
      "https://raw.githubusercontent.com/KKEsty2024/GhanaSites/main/cell%20tower.jpg"
    ]
  },
  {
    "lat": 5.7393792,
    "lon": 0.16636478,
    "name": "NEWNINGO",
    "id": 0,
    "trackerIMEI": 0,
    "icons": [
      "https://raw.githubusercontent.com/KKEsty2024/GhanaSites/main/cell%20tower.jpg"
    ]
  },
  {
    "lat": 5.6105383,
    "lon": -0.08799,
    "name": "NUNADOGONH50.5V",
    "id": 0,
    "trackerIMEI": 0,
    "icons": [
      "https://raw.githubusercontent.com/KKEsty2024/GhanaSites/main/cell%20tower.jpg"
    ]
  },
  {
    "lat": 5.7271554,
    "lon": 0.0067884,
    "name": "KAKASUNAK3",
    "id": 0,
    "trackerIMEI": 0,
    "icons": [
      "https://raw.githubusercontent.com/KKEsty2024/GhanaSites/main/cell%20tower.jpg"
    ]
  },
  {
    "lat": 5.5722567,
    "lon": -0.1270017,
    "name": "TESHIE3",
    "id": 0,
    "trackerIMEI": 0,
    "icons": [
      "https://raw.githubusercontent.com/KKEsty2024/GhanaSites/main/cell%20tower.jpg"
    ]
  },
  {
    "lat": 5.6666517,
    "lon": -0.08198,
    "name": "NUNGUAFARM",
    "id": 0,
    "trackerIMEI": 0,
    "icons": [
      "https://raw.githubusercontent.com/KKEsty2024/GhanaSites/main/cell%20tower.jpg"
    ]
  },
  {
    "lat": 5.70768118,
    "lon": 0.02788867,
    "name": "KPONEJN2",
    "id": 0,
    "trackerIMEI": 0,
    "icons": [
      "https://raw.githubusercontent.com/KKEsty2024/GhanaSites/main/cell%20tower.jpg"
    ]
  },
  {
    "lat": 5.6618697,
    "lon": -0.021194,
    "name": "TEMACOM11",
    "id": 0,
    "trackerIMEI": 0,
    "icons": [
      "https://raw.githubusercontent.com/KKEsty2024/GhanaSites/main/cell%20tower.jpg"
    ]
  },
  {
    "lat": 5.7366029,
    "lon": 0.0300025,
    "name": "TEMACOM25",
    "id": 0,
    "trackerIMEI": 0,
    "icons": [
      "https://raw.githubusercontent.com/KKEsty2024/GhanaSites/main/cell%20tower.jpg"
    ]
  },
  {
    "lat": 5.6539605,
    "lon": 0.0260068,
    "name": "TNEWTOWN2",
    "id": 0,
    "trackerIMEI": 0,
    "icons": [
      "https://raw.githubusercontent.com/KKEsty2024/GhanaSites/main/cell%20tower.jpg"
    ]
  },
  {
    "lat": 5.75835076,
    "lon": 0.08202496,
    "name": "MIOTSO",
    "id": 0,
    "trackerIMEI": 0,
    "icons": [
      "https://raw.githubusercontent.com/KKEsty2024/GhanaSites/main/cell%20tower.jpg"
    ]
  },
  {
    "lat": 5.7657864,
    "lon": -0.0005799,
    "name": "MATAHEKO-GA",
    "id": 0,
    "trackerIMEI": 0,
    "icons": [
      "https://raw.githubusercontent.com/KKEsty2024/GhanaSites/main/cell%20tower.jpg"
    ]
  },
  {
    "lat": 5.6035583,
    "lon": -0.1103567,
    "name": "TESSAFARI",
    "id": 0,
    "trackerIMEI": 0,
    "icons": [
      "https://raw.githubusercontent.com/KKEsty2024/GhanaSites/main/cell%20tower.jpg"
    ]
  },
  {
    "lat": 5.8052392,
    "lon": 0.0008727,
    "name": "AFIENYA",
    "id": 0,
    "trackerIMEI": 0,
    "icons": [
      "https://raw.githubusercontent.com/KKEsty2024/GhanaSites/main/cell%20tower.jpg"
    ]
  },
  {
    "lat": 7.60382666666667,
    "lon": -1.95717833333333,
    "name": "KENTEN",
    "id": 0,
    "trackerIMEI": 0,
    "icons": [
      "https://raw.githubusercontent.com/KKEsty2024/GhanaSites/main/cell%20tower.jpg"
    ]
  },
  {
    "lat": 9.4106119,
    "lon": -0.8250571,
    "name": "TAMALE3",
    "id": 0,
    "trackerIMEI": 0,
    "icons": [
      "https://raw.githubusercontent.com/KKEsty2024/GhanaSites/main/cell%20tower.jpg"
    ]
  },
  {
    "lat": 9.6324969,
    "lon": -0.8276515,
    "name": "SAVELUGU",
    "id": 0,
    "trackerIMEI": 0,
    "icons": [
      "https://raw.githubusercontent.com/KKEsty2024/GhanaSites/main/cell%20tower.jpg"
    ]
  },
  {
    "lat": 8.34445,
    "lon": -1.56816166666667,
    "name": "DAWADAWA",
    "id": 0,
    "trackerIMEI": 0,
    "icons": [
      "https://raw.githubusercontent.com/KKEsty2024/GhanaSites/main/cell%20tower.jpg"
    ]
  },
  {
    "lat": 7.577975,
    "lon": -1.94255166666667,
    "name": "TECHIMAN2",
    "id": 0,
    "trackerIMEI": 0,
    "icons": [
      "https://raw.githubusercontent.com/KKEsty2024/GhanaSites/main/cell%20tower.jpg"
    ]
  },
  {
    "lat": 7.3218855,
    "lon": -2.3152537,
    "name": "SUNYANI2",
    "id": 0,
    "trackerIMEI": 0,
    "icons": [
      "https://raw.githubusercontent.com/KKEsty2024/GhanaSites/main/cell%20tower.jpg"
    ]
  },
  {
    "lat": 8.5361333,
    "lon": -0.5034083,
    "name": "SALAGA",
    "id": 0,
    "trackerIMEI": 0,
    "icons": [
      "https://raw.githubusercontent.com/KKEsty2024/GhanaSites/main/cell%20tower.jpg"
    ]
  },
  {
    "lat": 10.3593066,
    "lon": -0.7997181,
    "name": "WALEWALE",
    "id": 0,
    "trackerIMEI": 0,
    "icons": [
      "https://raw.githubusercontent.com/KKEsty2024/GhanaSites/main/cell%20tower.jpg"
    ]
  },
  {
    "lat": 6.571355,
    "lon": -1.66568,
    "name": "BROFOYEDRU",
    "id": 0,
    "trackerIMEI": 0,
    "icons": [
      "https://raw.githubusercontent.com/KKEsty2024/GhanaSites/main/cell%20tower.jpg"
    ]
  },
  {
    "lat": 6.5941768,
    "lon": -0.7299299,
    "name": "MPRAESO2",
    "id": 0,
    "trackerIMEI": 0,
    "icons": [
      "https://raw.githubusercontent.com/KKEsty2024/GhanaSites/main/cell%20tower.jpg"
    ]
  },
  {
    "lat": 7.0600774,
    "lon": -1.4015632,
    "name": "MAMPONG",
    "id": 0,
    "trackerIMEI": 0,
    "icons": [
      "https://raw.githubusercontent.com/KKEsty2024/GhanaSites/main/cell%20tower.jpg"
    ]
  },
  {
    "lat": 7.16223613,
    "lon": -1.74139734,
    "name": "ABOFOR",
    "id": 0,
    "trackerIMEI": 0,
    "icons": [
      "https://raw.githubusercontent.com/KKEsty2024/GhanaSites/main/cell%20tower.jpg"
    ]
  },
  {
    "lat": 10.7044501,
    "lon": -1.2815053,
    "name": "SANDEMA",
    "id": 0,
    "trackerIMEI": 0,
    "icons": [
      "https://raw.githubusercontent.com/KKEsty2024/GhanaSites/main/cell%20tower.jpg"
    ]
  },
  {
    "lat": 5.7611853,
    "lon": 0.2334028,
    "name": "ANHWIAM",
    "id": 0,
    "trackerIMEI": 0,
    "icons": [
      "https://raw.githubusercontent.com/KKEsty2024/GhanaSites/main/cell%20tower.jpg"
    ]
  },
  {
    "lat": 6.20775666666667,
    "lon": -1.66773833333333,
    "name": "OBUASI2",
    "id": 0,
    "trackerIMEI": 0,
    "icons": [
      "https://raw.githubusercontent.com/KKEsty2024/GhanaSites/main/cell%20tower.jpg"
    ]
  },
  {
    "lat": 7.80925333333333,
    "lon": -1.80386,
    "name": "NEWPAMDU",
    "id": 0,
    "trackerIMEI": 0,
    "icons": [
      "https://raw.githubusercontent.com/KKEsty2024/GhanaSites/main/cell%20tower.jpg"
    ]
  },
  {
    "lat": 10.6052966666667,
    "lon": -0.858271666666667,
    "name": "PWALGU",
    "id": 0,
    "trackerIMEI": 0,
    "icons": [
      "https://raw.githubusercontent.com/KKEsty2024/GhanaSites/main/cell%20tower.jpg"
    ]
  },
  {
    "lat": 6.5406356,
    "lon": -0.7624934,
    "name": "NKAWKAW",
    "id": 0,
    "trackerIMEI": 0,
    "icons": [
      "https://raw.githubusercontent.com/KKEsty2024/GhanaSites/main/cell%20tower.jpg"
    ]
  },
  {
    "lat": 6.05822833333333,
    "lon": -1.39564833333333,
    "name": "NEWEDUBIAS",
    "id": 0,
    "trackerIMEI": 0,
    "icons": [
      "https://raw.githubusercontent.com/KKEsty2024/GhanaSites/main/cell%20tower.jpg"
    ]
  },
  {
    "lat": 6.65031833333333,
    "lon": -1.19115666666667,
    "name": "KONONGO",
    "id": 0,
    "trackerIMEI": 0,
    "icons": [
      "https://raw.githubusercontent.com/KKEsty2024/GhanaSites/main/cell%20tower.jpg"
    ]
  },
  {
    "lat": 6.5762183,
    "lon": -0.7616683,
    "name": "MPREASO",
    "id": 0,
    "trackerIMEI": 0,
    "icons": [
      "https://raw.githubusercontent.com/KKEsty2024/GhanaSites/main/cell%20tower.jpg"
    ]
  },
  {
    "lat": 6.18998,
    "lon": -1.69029166666667,
    "name": "OBUASI1",
    "id": 0,
    "trackerIMEI": 0,
    "icons": [
      "https://raw.githubusercontent.com/KKEsty2024/GhanaSites/main/cell%20tower.jpg"
    ]
  },
  {
    "lat": 6.3336459,
    "lon": -2.2697568,
    "name": "BIBIANI1",
    "id": 0,
    "trackerIMEI": 0,
    "icons": [
      "https://raw.githubusercontent.com/KKEsty2024/GhanaSites/main/cell%20tower.jpg"
    ]
  },
  {
    "lat": 7.0033,
    "lon": -2.16373,
    "name": "TEPA",
    "id": 0,
    "trackerIMEI": 0,
    "icons": [
      "https://raw.githubusercontent.com/KKEsty2024/GhanaSites/main/cell%20tower.jpg"
    ]
  },
  {
    "lat": 6.8054674,
    "lon": -2.5253482,
    "name": "MIM",
    "id": 0,
    "trackerIMEI": 0,
    "icons": [
      "https://raw.githubusercontent.com/KKEsty2024/GhanaSites/main/cell%20tower.jpg"
    ]
  },
  {
    "lat": 5.90438333333333,
    "lon": -0.996551666666667,
    "name": "AKIMSWEDRO",
    "id": 0,
    "trackerIMEI": 0,
    "icons": [
      "https://raw.githubusercontent.com/KKEsty2024/GhanaSites/main/cell%20tower.jpg"
    ]
  },
  {
    "lat": 6.0553159,
    "lon": -0.7936099,
    "name": "BAWDUA",
    "id": 0,
    "trackerIMEI": 0,
    "icons": [
      "https://raw.githubusercontent.com/KKEsty2024/GhanaSites/main/cell%20tower.jpg"
    ]
  },
  {
    "lat": 6.711395,
    "lon": -1.46489,
    "name": "EJISU",
    "id": 0,
    "trackerIMEI": 0,
    "icons": [
      "https://raw.githubusercontent.com/KKEsty2024/GhanaSites/main/cell%20tower.jpg"
    ]
  },
  {
    "lat": 5.93138,
    "lon": -0.99286,
    "name": "AKIMODA",
    "id": 0,
    "trackerIMEI": 0,
    "icons": [
      "https://raw.githubusercontent.com/KKEsty2024/GhanaSites/main/cell%20tower.jpg"
    ]
  },
  {
    "lat": 6.8093444,
    "lon": -2.5366156,
    "name": "GOASO",
    "id": 0,
    "trackerIMEI": 0,
    "icons": [
      "https://raw.githubusercontent.com/KKEsty2024/GhanaSites/main/cell%20tower.jpg"
    ]
  },
  {
    "lat": 7.0798737,
    "lon": -2.023408,
    "name": "BECHEM",
    "id": 0,
    "trackerIMEI": 0,
    "icons": [
      "https://raw.githubusercontent.com/KKEsty2024/GhanaSites/main/cell%20tower.jpg"
    ]
  },
  {
    "lat": 8.03665833333333,
    "lon": -1.666775,
    "name": "KINTAMPO",
    "id": 0,
    "trackerIMEI": 0,
    "icons": [
      "https://raw.githubusercontent.com/KKEsty2024/GhanaSites/main/cell%20tower.jpg"
    ]
  },
  {
    "lat": 10.9733531,
    "lon": -1.1051333,
    "name": "PAGA",
    "id": 0,
    "trackerIMEI": 0,
    "icons": [
      "https://raw.githubusercontent.com/KKEsty2024/GhanaSites/main/cell%20tower.jpg"
    ]
  },
  {
    "lat": 7.34686833333333,
    "lon": -2.36160833333333,
    "name": "CHIRAA",
    "id": 0,
    "trackerIMEI": 0,
    "icons": [
      "https://raw.githubusercontent.com/KKEsty2024/GhanaSites/main/cell%20tower.jpg"
    ]
  },
  {
    "lat": 5.8732033,
    "lon": -0.6674283,
    "name": "ASAMANKESE",
    "id": 0,
    "trackerIMEI": 0,
    "icons": [
      "https://raw.githubusercontent.com/KKEsty2024/GhanaSites/main/cell%20tower.jpg"
    ]
  },
  {
    "lat": 6.905325,
    "lon": -1.27394833333333,
    "name": "KUMAWU",
    "id": 0,
    "trackerIMEI": 0,
    "icons": [
      "https://raw.githubusercontent.com/KKEsty2024/GhanaSites/main/cell%20tower.jpg"
    ]
  },
  {
    "lat": 6.93343666666667,
    "lon": -1.48862333333333,
    "name": "AGONA",
    "id": 0,
    "trackerIMEI": 0,
    "icons": [
      "https://raw.githubusercontent.com/KKEsty2024/GhanaSites/main/cell%20tower.jpg"
    ]
  },
  {
    "lat": 6.24657988,
    "lon": -2.28785121,
    "name": "SEFIAWASO",
    "id": 0,
    "trackerIMEI": 0,
    "icons": [
      "https://raw.githubusercontent.com/KKEsty2024/GhanaSites/main/cell%20tower.jpg"
    ]
  },
  {
    "lat": 7.350165,
    "lon": -1.37146833333333,
    "name": "EJURA",
    "id": 0,
    "trackerIMEI": 0,
    "icons": [
      "https://raw.githubusercontent.com/KKEsty2024/GhanaSites/main/cell%20tower.jpg"
    ]
  },
  {
    "lat": 6.6395507,
    "lon": -0.7433589,
    "name": "NKWATIA",
    "id": 0,
    "trackerIMEI": 0,
    "icons": [
      "https://raw.githubusercontent.com/KKEsty2024/GhanaSites/main/cell%20tower.jpg"
    ]
  },
  {
    "lat": 8.98104333333333,
    "lon": -1.357795,
    "name": "DOMEABRA",
    "id": 0,
    "trackerIMEI": 0,
    "icons": [
      "https://raw.githubusercontent.com/KKEsty2024/GhanaSites/main/cell%20tower.jpg"
    ]
  },
  {
    "lat": 8.58651333333333,
    "lon": -1.55680666666667,
    "name": "PORTO",
    "id": 0,
    "trackerIMEI": 0,
    "icons": [
      "https://raw.githubusercontent.com/KKEsty2024/GhanaSites/main/cell%20tower.jpg"
    ]
  },
  {
    "lat": 9.208455,
    "lon": -1.06649166666667,
    "name": "KUSAWGU",
    "id": 0,
    "trackerIMEI": 0,
    "icons": [
      "https://raw.githubusercontent.com/KKEsty2024/GhanaSites/main/cell%20tower.jpg"
    ]
  },
  {
    "lat": 6.3825381,
    "lon": -0.3787572,
    "name": "BEGORO",
    "id": 0,
    "trackerIMEI": 0,
    "icons": [
      "https://raw.githubusercontent.com/KKEsty2024/GhanaSites/main/cell%20tower.jpg"
    ]
  },
  {
    "lat": 7.4597517,
    "lon": -2.59799,
    "name": "BEREKUM",
    "id": 0,
    "trackerIMEI": 0,
    "icons": [
      "https://raw.githubusercontent.com/KKEsty2024/GhanaSites/main/cell%20tower.jpg"
    ]
  },
  {
    "lat": 7.2756567,
    "lon": -2.8585683,
    "name": "DORMA",
    "id": 0,
    "trackerIMEI": 0,
    "icons": [
      "https://raw.githubusercontent.com/KKEsty2024/GhanaSites/main/cell%20tower.jpg"
    ]
  },
  {
    "lat": 6.46001,
    "lon": -2.32000666666667,
    "name": "BIBIANI3",
    "id": 0,
    "trackerIMEI": 0,
    "icons": [
      "https://raw.githubusercontent.com/KKEsty2024/GhanaSites/main/cell%20tower.jpg"
    ]
  },
  {
    "lat": 6.93420834,
    "lon": -1.67550874,
    "name": "OFFINSO",
    "id": 0,
    "trackerIMEI": 0,
    "icons": [
      "https://raw.githubusercontent.com/KKEsty2024/GhanaSites/main/cell%20tower.jpg"
    ]
  },
  {
    "lat": 7.74475666666667,
    "lon": -0.97877,
    "name": "ATEBUBU",
    "id": 0,
    "trackerIMEI": 0,
    "icons": [
      "https://raw.githubusercontent.com/KKEsty2024/GhanaSites/main/cell%20tower.jpg"
    ]
  },
  {
    "lat": 8.22046166666667,
    "lon": -0.67307,
    "name": "YEJI",
    "id": 0,
    "trackerIMEI": 0,
    "icons": [
      "https://raw.githubusercontent.com/KKEsty2024/GhanaSites/main/cell%20tower.jpg"
    ]
  },
  {
    "lat": 5.84322666666667,
    "lon": -0.996833333333333,
    "name": "ACHIASI1",
    "id": 0,
    "trackerIMEI": 0,
    "icons": [
      "https://raw.githubusercontent.com/KKEsty2024/GhanaSites/main/cell%20tower.jpg"
    ]
  },
  {
    "lat": 6.981325,
    "lon": -1.95779666666667,
    "name": "POKUKROM",
    "id": 0,
    "trackerIMEI": 0,
    "icons": [
      "https://raw.githubusercontent.com/KKEsty2024/GhanaSites/main/cell%20tower.jpg"
    ]
  },
  {
    "lat": 6.46222666666667,
    "lon": -1.57418666666667,
    "name": "BEKWAI",
    "id": 0,
    "trackerIMEI": 0,
    "icons": [
      "https://raw.githubusercontent.com/KKEsty2024/GhanaSites/main/cell%20tower.jpg"
    ]
  },
  {
    "lat": 5.7683217,
    "lon": -0.7700617,
    "name": "AKIMAKROSO",
    "id": 0,
    "trackerIMEI": 0,
    "icons": [
      "https://raw.githubusercontent.com/KKEsty2024/GhanaSites/main/cell%20tower.jpg"
    ]
  },
  {
    "lat": 10.6453466666667,
    "lon": -2.887795,
    "name": "LAWRA",
    "id": 0,
    "trackerIMEI": 0,
    "icons": [
      "https://raw.githubusercontent.com/KKEsty2024/GhanaSites/main/cell%20tower.jpg"
    ]
  },
  {
    "lat": 10.3761716666667,
    "lon": -2.66300166666667,
    "name": "NADOWLI",
    "id": 0,
    "trackerIMEI": 0,
    "icons": [
      "https://raw.githubusercontent.com/KKEsty2024/GhanaSites/main/cell%20tower.jpg"
    ]
  },
  {
    "lat": 10.9507477,
    "lon": -0.5016943,
    "name": "ZEBILLA",
    "id": 0,
    "trackerIMEI": 0,
    "icons": [
      "https://raw.githubusercontent.com/KKEsty2024/GhanaSites/main/cell%20tower.jpg"
    ]
  },
  {
    "lat": 6.5328523,
    "lon": 0.2262043,
    "name": "PEKI",
    "id": 0,
    "trackerIMEI": 0,
    "icons": [
      "https://raw.githubusercontent.com/KKEsty2024/GhanaSites/main/cell%20tower.jpg"
    ]
  },
  {
    "lat": 6.99172748252749,
    "lon": 0.290756151080132,
    "name": "KPANDO",
    "id": 0,
    "trackerIMEI": 0,
    "icons": [
      "https://raw.githubusercontent.com/KKEsty2024/GhanaSites/main/cell%20tower.jpg"
    ]
  },
  {
    "lat": 7.14620880782604,
    "lon": 0.476699201390147,
    "name": "HOHE",
    "id": 0,
    "trackerIMEI": 0,
    "icons": [
      "https://raw.githubusercontent.com/KKEsty2024/GhanaSites/main/cell%20tower.jpg"
    ]
  },
  {
    "lat": 7.40947519,
    "lon": 0.47194769,
    "name": "JASIKAN",
    "id": 0,
    "trackerIMEI": 0,
    "icons": [
      "https://raw.githubusercontent.com/KKEsty2024/GhanaSites/main/cell%20tower.jpg"
    ]
  },
  {
    "lat": 5.284874,
    "lon": -2.7731864,
    "name": "ELUBO1H53.5V",
    "id": 0,
    "trackerIMEI": 0,
    "icons": [
      "https://raw.githubusercontent.com/KKEsty2024/GhanaSites/main/cell%20tower.jpg"
    ]
  },
  {
    "lat": 5.5829117,
    "lon": -0.9864433,
    "name": "ASIKUMACR",
    "id": 0,
    "trackerIMEI": 0,
    "icons": [
      "https://raw.githubusercontent.com/KKEsty2024/GhanaSites/main/cell%20tower.jpg"
    ]
  },
  {
    "lat": 5.695085,
    "lon": -1.28244,
    "name": "ASSINFOSU",
    "id": 0,
    "trackerIMEI": 0,
    "icons": [
      "https://raw.githubusercontent.com/KKEsty2024/GhanaSites/main/cell%20tower.jpg"
    ]
  },
  {
    "lat": 5.8130048,
    "lon": -2.82619656,
    "name": "ENCHI",
    "id": 0,
    "trackerIMEI": 0,
    "icons": [
      "https://raw.githubusercontent.com/KKEsty2024/GhanaSites/main/cell%20tower.jpg"
    ]
  },
  {
    "lat": 7.5874501,
    "lon": -2.7860121,
    "name": "NEWDROBO",
    "id": 0,
    "trackerIMEI": 0,
    "icons": [
      "https://raw.githubusercontent.com/KKEsty2024/GhanaSites/main/cell%20tower.jpg"
    ]
  },
  {
    "lat": 10.8976678736508,
    "lon": -1.09216106124222,
    "name": "NAVRONGO1",
    "id": 0,
    "trackerIMEI": 0,
    "icons": [
      "https://raw.githubusercontent.com/KKEsty2024/GhanaSites/main/cell%20tower.jpg"
    ]
  },
  {
    "lat": 11.0601338,
    "lon": -0.2279618,
    "name": "BAWKU1",
    "id": 0,
    "trackerIMEI": 0,
    "icons": [
      "https://raw.githubusercontent.com/KKEsty2024/GhanaSites/main/cell%20tower.jpg"
    ]
  },
  {
    "lat": 10.8009586,
    "lon": -0.8636708,
    "name": "BOLGA1",
    "id": 0,
    "trackerIMEI": 0,
    "icons": [
      "https://raw.githubusercontent.com/KKEsty2024/GhanaSites/main/cell%20tower.jpg"
    ]
  },
  {
    "lat": 10.7727083333333,
    "lon": -0.848815,
    "name": "BOLGATNGA2",
    "id": 0,
    "trackerIMEI": 0,
    "icons": [
      "https://raw.githubusercontent.com/KKEsty2024/GhanaSites/main/cell%20tower.jpg"
    ]
  },
  {
    "lat": 10.8825363,
    "lon": -1.0832904,
    "name": "NAVRONGO2",
    "id": 0,
    "trackerIMEI": 0,
    "icons": [
      "https://raw.githubusercontent.com/KKEsty2024/GhanaSites/main/cell%20tower.jpg"
    ]
  },
  {
    "lat": 9.45482333333333,
    "lon": -0.00694666666666667,
    "name": "YENDI",
    "id": 0,
    "trackerIMEI": 0,
    "icons": [
      "https://raw.githubusercontent.com/KKEsty2024/GhanaSites/main/cell%20tower.jpg"
    ]
  },
  {
    "lat": 9.5611838,
    "lon": -0.953317,
    "name": "KUMBUGU",
    "id": 0,
    "trackerIMEI": 0,
    "icons": [
      "https://raw.githubusercontent.com/KKEsty2024/GhanaSites/main/cell%20tower.jpg"
    ]
  },
  {
    "lat": 8.86725,
    "lon": 0.04808,
    "name": "BIMBILLA",
    "id": 0,
    "trackerIMEI": 0,
    "icons": [
      "https://raw.githubusercontent.com/KKEsty2024/GhanaSites/main/cell%20tower.jpg"
    ]
  },
  {
    "lat": 9.08533666666667,
    "lon": -1.821385,
    "name": "DAMANGO",
    "id": 0,
    "trackerIMEI": 0,
    "icons": [
      "https://raw.githubusercontent.com/KKEsty2024/GhanaSites/main/cell%20tower.jpg"
    ]
  },
  {
    "lat": 10.8733433333333,
    "lon": -1.98757,
    "name": "TUMU",
    "id": 0,
    "trackerIMEI": 0,
    "icons": [
      "https://raw.githubusercontent.com/KKEsty2024/GhanaSites/main/cell%20tower.jpg"
    ]
  },
  {
    "lat": 5.8177483,
    "lon": -0.3491482,
    "name": "NSAWAM2",
    "id": 0,
    "trackerIMEI": 0,
    "icons": [
      "https://raw.githubusercontent.com/KKEsty2024/GhanaSites/main/cell%20tower.jpg"
    ]
  },
  {
    "lat": 5.8009183,
    "lon": -0.3463117,
    "name": "NSAWAM",
    "id": 0,
    "trackerIMEI": 0,
    "icons": [
      "https://raw.githubusercontent.com/KKEsty2024/GhanaSites/main/cell%20tower.jpg"
    ]
  },
  {
    "lat": 5.4201267,
    "lon": -2.1351667,
    "name": "PRESTIA",
    "id": 0,
    "trackerIMEI": 0,
    "icons": [
      "https://raw.githubusercontent.com/KKEsty2024/GhanaSites/main/cell%20tower.jpg"
    ]
  },
  {
    "lat": 4.9363705,
    "lon": -1.7150634,
    "name": "SEKONDI2",
    "id": 0,
    "trackerIMEI": 0,
    "icons": [
      "https://raw.githubusercontent.com/KKEsty2024/GhanaSites/main/cell%20tower.jpg"
    ]
  },
  {
    "lat": 4.95359973,
    "lon": -1.71153464,
    "name": "SEKONDI3",
    "id": 0,
    "trackerIMEI": 0,
    "icons": [
      "https://raw.githubusercontent.com/KKEsty2024/GhanaSites/main/cell%20tower.jpg"
    ]
  },
  {
    "lat": 5.3029148,
    "lon": -2.0080356,
    "name": "TARKWA1",
    "id": 0,
    "trackerIMEI": 0,
    "icons": [
      "https://raw.githubusercontent.com/KKEsty2024/GhanaSites/main/cell%20tower.jpg"
    ]
  },
  {
    "lat": 5.2905557,
    "lon": -1.9959965,
    "name": "TARKWA2",
    "id": 0,
    "trackerIMEI": 0,
    "icons": [
      "https://raw.githubusercontent.com/KKEsty2024/GhanaSites/main/cell%20tower.jpg"
    ]
  },
  {
    "lat": 5.95316792,
    "lon": -1.7735783,
    "name": "DUNKWA",
    "id": 0,
    "trackerIMEI": 0,
    "icons": [
      "https://raw.githubusercontent.com/KKEsty2024/GhanaSites/main/cell%20tower.jpg"
    ]
  },
  {
    "lat": 4.879065,
    "lon": -2.21993666666667,
    "name": "AXIM",
    "id": 0,
    "trackerIMEI": 0,
    "icons": [
      "https://raw.githubusercontent.com/KKEsty2024/GhanaSites/main/cell%20tower.jpg"
    ]
  },
  {
    "lat": 4.92807666666667,
    "lon": -2.32431333333333,
    "name": "ESSIAMA",
    "id": 0,
    "trackerIMEI": 0,
    "icons": [
      "https://raw.githubusercontent.com/KKEsty2024/GhanaSites/main/cell%20tower.jpg"
    ]
  },
  {
    "lat": 5.70965322822996,
    "lon": -0.298431424442393,
    "name": "AMASAMAN",
    "id": 0,
    "trackerIMEI": 0,
    "icons": [
      "https://raw.githubusercontent.com/KKEsty2024/GhanaSites/main/cell%20tower.jpg"
    ]
  },
  {
    "lat": 5.55460563183156,
    "lon": -1.5347665767431,
    "name": "TWIFOPRASO",
    "id": 0,
    "trackerIMEI": 0,
    "icons": [
      "https://raw.githubusercontent.com/KKEsty2024/GhanaSites/main/cell%20tower.jpg"
    ]
  },
  {
    "lat": 5.5405927,
    "lon": -0.4291954,
    "name": "KASWA",
    "id": 0,
    "trackerIMEI": 0,
    "icons": [
      "https://raw.githubusercontent.com/KKEsty2024/GhanaSites/main/cell%20tower.jpg"
    ]
  },
  {
    "lat": 5.382689,
    "lon": -0.6430428,
    "name": "WINNEBA1",
    "id": 0,
    "trackerIMEI": 0,
    "icons": [
      "https://raw.githubusercontent.com/KKEsty2024/GhanaSites/main/cell%20tower.jpg"
    ]
  },
  {
    "lat": 5.352615,
    "lon": -0.61652,
    "name": "WINNEBA2",
    "id": 0,
    "trackerIMEI": 0,
    "icons": [
      "https://raw.githubusercontent.com/KKEsty2024/GhanaSites/main/cell%20tower.jpg"
    ]
  },
  {
    "lat": 5.204835,
    "lon": -1.052265,
    "name": "SALTPOND",
    "id": 0,
    "trackerIMEI": 0,
    "icons": [
      "https://raw.githubusercontent.com/KKEsty2024/GhanaSites/main/cell%20tower.jpg"
    ]
  },
  {
    "lat": 10.0842016666667,
    "lon": -2.51350333333333,
    "name": "WASTRIP",
    "id": 0,
    "trackerIMEI": 0,
    "icons": [
      "https://raw.githubusercontent.com/KKEsty2024/GhanaSites/main/cell%20tower.jpg"
    ]
  },
  {
    "lat": 5.1033917,
    "lon": -1.389395,
    "name": "ELMINA",
    "id": 0,
    "trackerIMEI": 0,
    "icons": [
      "https://raw.githubusercontent.com/KKEsty2024/GhanaSites/main/cell%20tower.jpg"
    ]
  },
  {
    "lat": 5.0884417,
    "lon": -1.50435,
    "name": "KISSI",
    "id": 0,
    "trackerIMEI": 0,
    "icons": [
      "https://raw.githubusercontent.com/KKEsty2024/GhanaSites/main/cell%20tower.jpg"
    ]
  },
  {
    "lat": 5.00710986,
    "lon": -1.66871292,
    "name": "ITUMA",
    "id": 0,
    "trackerIMEI": 0,
    "icons": [
      "https://raw.githubusercontent.com/KKEsty2024/GhanaSites/main/cell%20tower.jpg"
    ]
  },
  {
    "lat": 6.09176,
    "lon": -0.2586933,
    "name": "KOFORIDUA1",
    "id": 0,
    "trackerIMEI": 0,
    "icons": [
      "https://raw.githubusercontent.com/KKEsty2024/GhanaSites/main/cell%20tower.jpg"
    ]
  },
  {
    "lat": 5.7502012,
    "lon": -0.0577449,
    "name": "ASHMANSWISS",
    "id": 0,
    "trackerIMEI": 0,
    "icons": [
      "https://raw.githubusercontent.com/KKEsty2024/GhanaSites/main/cell%20tower.jpg"
    ]
  },
  {
    "lat": 6.6095521,
    "lon": 0.4439128,
    "name": "HO",
    "id": 0,
    "trackerIMEI": 0,
    "icons": [
      "https://raw.githubusercontent.com/KKEsty2024/GhanaSites/main/cell%20tower.jpg"
    ]
  },
  {
    "lat": 6.07255333333333,
    "lon": 1.03446333333333,
    "name": "AGBOZUME",
    "id": 0,
    "trackerIMEI": 0,
    "icons": [
      "https://raw.githubusercontent.com/KKEsty2024/GhanaSites/main/cell%20tower.jpg"
    ]
  },
  {
    "lat": 6.23277973333333,
    "lon": 0.999967666666667,
    "name": "DODZE",
    "id": 0,
    "trackerIMEI": 0,
    "icons": [
      "https://raw.githubusercontent.com/KKEsty2024/GhanaSites/main/cell%20tower.jpg"
    ]
  },
  {
    "lat": 5.89701166666667,
    "lon": 0.987015,
    "name": "KETA",
    "id": 0,
    "trackerIMEI": 0,
    "icons": [
      "https://raw.githubusercontent.com/KKEsty2024/GhanaSites/main/cell%20tower.jpg"
    ]
  },
  {
    "lat": 6.12100928333333,
    "lon": 0.80907345,
    "name": "AKATSI",
    "id": 0,
    "trackerIMEI": 0,
    "icons": [
      "https://raw.githubusercontent.com/KKEsty2024/GhanaSites/main/cell%20tower.jpg"
    ]
  },
  {
    "lat": 6.3481429,
    "lon": -0.4832758,
    "name": "OSINO",
    "id": 0,
    "trackerIMEI": 0,
    "icons": [
      "https://raw.githubusercontent.com/KKEsty2024/GhanaSites/main/cell%20tower.jpg"
    ]
  },
  {
    "lat": 6.0496067,
    "lon": -0.4606233,
    "name": "SUHUM",
    "id": 0,
    "trackerIMEI": 0,
    "icons": [
      "https://raw.githubusercontent.com/KKEsty2024/GhanaSites/main/cell%20tower.jpg"
    ]
  },
  {
    "lat": 6.0019291,
    "lon": 0.5980138,
    "name": "SOGAKOPE",
    "id": 0,
    "trackerIMEI": 0,
    "icons": [
      "https://raw.githubusercontent.com/KKEsty2024/GhanaSites/main/cell%20tower.jpg"
    ]
  },
  {
    "lat": 6.134185,
    "lon": 1.18248166666667,
    "name": "AFLAO",
    "id": 0,
    "trackerIMEI": 0,
    "icons": [
      "https://raw.githubusercontent.com/KKEsty2024/GhanaSites/main/cell%20tower.jpg"
    ]
  },
  {
    "lat": 5.7934854,
    "lon": 0.6223452,
    "name": "BIGADA",
    "id": 0,
    "trackerIMEI": 0,
    "icons": [
      "https://raw.githubusercontent.com/KKEsty2024/GhanaSites/main/cell%20tower.jpg"
    ]
  },
  {
    "lat": 5.7919083,
    "lon": 0.89784,
    "name": "ANLOGA",
    "id": 0,
    "trackerIMEI": 0,
    "icons": [
      "https://raw.githubusercontent.com/KKEsty2024/GhanaSites/main/cell%20tower.jpg"
    ]
  },
  {
    "lat": 6.120455,
    "lon": -0.0134483,
    "name": "SOMANYA",
    "id": 0,
    "trackerIMEI": 0,
    "icons": [
      "https://raw.githubusercontent.com/KKEsty2024/GhanaSites/main/cell%20tower.jpg"
    ]
  },
  {
    "lat": 5.8649044,
    "lon": 0.2895362,
    "name": "DAWA",
    "id": 0,
    "trackerIMEI": 0,
    "icons": [
      "https://raw.githubusercontent.com/KKEsty2024/GhanaSites/main/cell%20tower.jpg"
    ]
  },
  {
    "lat": 6.259925,
    "lon": -0.50348,
    "name": "ASIAKWA",
    "id": 0,
    "trackerIMEI": 0,
    "icons": [
      "https://raw.githubusercontent.com/KKEsty2024/GhanaSites/main/cell%20tower.jpg"
    ]
  },
  {
    "lat": 6.2264433,
    "lon": -0.3613983,
    "name": "NEWTAFO",
    "id": 0,
    "trackerIMEI": 0,
    "icons": [
      "https://raw.githubusercontent.com/KKEsty2024/GhanaSites/main/cell%20tower.jpg"
    ]
  },
  {
    "lat": 6.2535993,
    "lon": 0.1390487,
    "name": "JUAPONG",
    "id": 0,
    "trackerIMEI": 0,
    "icons": [
      "https://raw.githubusercontent.com/KKEsty2024/GhanaSites/main/cell%20tower.jpg"
    ]
  },
  {
    "lat": 6.5471225,
    "lon": 0.1699842,
    "name": "BOSO",
    "id": 0,
    "trackerIMEI": 0,
    "icons": [
      "https://raw.githubusercontent.com/KKEsty2024/GhanaSites/main/cell%20tower.jpg"
    ]
  },
  {
    "lat": 7.9507617,
    "lon": -2.6998867,
    "name": "SAMPA",
    "id": 0,
    "trackerIMEI": 0,
    "icons": [
      "https://raw.githubusercontent.com/KKEsty2024/GhanaSites/main/cell%20tower.jpg"
    ]
  },
  {
    "lat": 6.154995,
    "lon": 0.0331383,
    "name": "AGOMENYA",
    "id": 0,
    "trackerIMEI": 0,
    "icons": [
      "https://raw.githubusercontent.com/KKEsty2024/GhanaSites/main/cell%20tower.jpg"
    ]
  },
  {
    "lat": 5.2081042,
    "lon": -0.936788,
    "name": "NARKWA",
    "id": 0,
    "trackerIMEI": 0,
    "icons": [
      "https://raw.githubusercontent.com/KKEsty2024/GhanaSites/main/cell%20tower.jpg"
    ]
  },
  {
    "lat": 4.89221156,
    "lon": -1.75597867,
    "name": "TAKORADI2",
    "id": 0,
    "trackerIMEI": 0,
    "icons": [
      "https://raw.githubusercontent.com/KKEsty2024/GhanaSites/main/cell%20tower.jpg"
    ]
  },
  {
    "lat": 4.905165,
    "lon": -1.7961664,
    "name": "APOLLO",
    "id": 0,
    "trackerIMEI": 0,
    "icons": [
      "https://raw.githubusercontent.com/KKEsty2024/GhanaSites/main/cell%20tower.jpg"
    ]
  },
  {
    "lat": 6.0892549,
    "lon": -0.24192,
    "name": "KOFORIDUA2",
    "id": 0,
    "trackerIMEI": 0,
    "icons": [
      "https://raw.githubusercontent.com/KKEsty2024/GhanaSites/main/cell%20tower.jpg"
    ]
  },
  {
    "lat": 7.39422109,
    "lon": -1.950875,
    "name": "AKOMADAN",
    "id": 0,
    "trackerIMEI": 0,
    "icons": [
      "https://raw.githubusercontent.com/KKEsty2024/GhanaSites/main/cell%20tower.jpg"
    ]
  },
  {
    "lat": 5.395945,
    "lon": -0.4962883,
    "name": "SENYABREKU1",
    "id": 0,
    "trackerIMEI": 0,
    "icons": [
      "https://raw.githubusercontent.com/KKEsty2024/GhanaSites/main/cell%20tower.jpg"
    ]
  },
  {
    "lat": 5.866085,
    "lon": -1.33967833333333,
    "name": "ASSINBREKU",
    "id": 0,
    "trackerIMEI": 0,
    "icons": [
      "https://raw.githubusercontent.com/KKEsty2024/GhanaSites/main/cell%20tower.jpg"
    ]
  },
  {
    "lat": 6.109345,
    "lon": -0.261841666666667,
    "name": "KOFORIDUA3",
    "id": 0,
    "trackerIMEI": 0,
    "icons": [
      "https://raw.githubusercontent.com/KKEsty2024/GhanaSites/main/cell%20tower.jpg"
    ]
  },
  {
    "lat": 6.07214972376823,
    "lon": 0.405311118811369,
    "name": "BATOR",
    "id": 0,
    "trackerIMEI": 0,
    "icons": [
      "https://raw.githubusercontent.com/KKEsty2024/GhanaSites/main/cell%20tower.jpg"
    ]
  },
  {
    "lat": 5.94231666666667,
    "lon": -0.119778333333333,
    "name": "MAMFE",
    "id": 0,
    "trackerIMEI": 0,
    "icons": [
      "https://raw.githubusercontent.com/KKEsty2024/GhanaSites/main/cell%20tower.jpg"
    ]
  },
  {
    "lat": 5.113812,
    "lon": -1.2639009,
    "name": "CAPECOAST.4",
    "id": 0,
    "trackerIMEI": 0,
    "icons": [
      "https://raw.githubusercontent.com/KKEsty2024/GhanaSites/main/cell%20tower.jpg"
    ]
  },
  {
    "lat": 6.374135,
    "lon": -0.5464317,
    "name": "ANYINAM",
    "id": 0,
    "trackerIMEI": 0,
    "icons": [
      "https://raw.githubusercontent.com/KKEsty2024/GhanaSites/main/cell%20tower.jpg"
    ]
  },
  {
    "lat": 6.11807833333333,
    "lon": 1.185995,
    "name": "AFLAO2",
    "id": 0,
    "trackerIMEI": 0,
    "icons": [
      "https://raw.githubusercontent.com/KKEsty2024/GhanaSites/main/cell%20tower.jpg"
    ]
  },
  {
    "lat": 6.1850066,
    "lon": -0.3711397,
    "name": "KUKURANTUMI",
    "id": 0,
    "trackerIMEI": 0,
    "icons": [
      "https://raw.githubusercontent.com/KKEsty2024/GhanaSites/main/cell%20tower.jpg"
    ]
  },
  {
    "lat": 6.1054666,
    "lon": -0.8370302,
    "name": "KADE",
    "id": 0,
    "trackerIMEI": 0,
    "icons": [
      "https://raw.githubusercontent.com/KKEsty2024/GhanaSites/main/cell%20tower.jpg"
    ]
  },
  {
    "lat": 6.26973,
    "lon": -0.876505,
    "name": "ASUOM",
    "id": 0,
    "trackerIMEI": 0,
    "icons": [
      "https://raw.githubusercontent.com/KKEsty2024/GhanaSites/main/cell%20tower.jpg"
    ]
  },
  {
    "lat": 5.827415,
    "lon": -0.3541417,
    "name": "ADOAGYIRI",
    "id": 0,
    "trackerIMEI": 0,
    "icons": [
      "https://raw.githubusercontent.com/KKEsty2024/GhanaSites/main/cell%20tower.jpg"
    ]
  },
  {
    "lat": 5.918695,
    "lon": -0.92993,
    "name": "ASENE",
    "id": 0,
    "trackerIMEI": 0,
    "icons": [
      "https://raw.githubusercontent.com/KKEsty2024/GhanaSites/main/cell%20tower.jpg"
    ]
  },
  {
    "lat": 6.07892166666667,
    "lon": -0.262083333333333,
    "name": "KOFORIDUA4",
    "id": 0,
    "trackerIMEI": 0,
    "icons": [
      "https://raw.githubusercontent.com/KKEsty2024/GhanaSites/main/cell%20tower.jpg"
    ]
  },
  {
    "lat": 6.1132532,
    "lon": -0.2766066,
    "name": "ASOKORE",
    "id": 0,
    "trackerIMEI": 0,
    "icons": [
      "https://raw.githubusercontent.com/KKEsty2024/GhanaSites/main/cell%20tower.jpg"
    ]
  },
  {
    "lat": 6.0332133,
    "lon": -0.812285,
    "name": "AKWATIA",
    "id": 0,
    "trackerIMEI": 0,
    "icons": [
      "https://raw.githubusercontent.com/KKEsty2024/GhanaSites/main/cell%20tower.jpg"
    ]
  },
  {
    "lat": 6.139825,
    "lon": 0.0082133,
    "name": "KRBOODUMSI",
    "id": 0,
    "trackerIMEI": 0,
    "icons": [
      "https://raw.githubusercontent.com/KKEsty2024/GhanaSites/main/cell%20tower.jpg"
    ]
  },
  {
    "lat": 6.343705,
    "lon": -0.997203333333333,
    "name": "NEW-ABIRIM",
    "id": 0,
    "trackerIMEI": 0,
    "icons": [
      "https://raw.githubusercontent.com/KKEsty2024/GhanaSites/main/cell%20tower.jpg"
    ]
  },
  {
    "lat": 5.5207935,
    "lon": -0.4795268,
    "name": "BUDUBURAM",
    "id": 0,
    "trackerIMEI": 0,
    "icons": [
      "https://raw.githubusercontent.com/KKEsty2024/GhanaSites/main/cell%20tower.jpg"
    ]
  },
  {
    "lat": 5.13631,
    "lon": -1.2128817,
    "name": "MOREE",
    "id": 0,
    "trackerIMEI": 0,
    "icons": [
      "https://raw.githubusercontent.com/KKEsty2024/GhanaSites/main/cell%20tower.jpg"
    ]
  },
  {
    "lat": 5.61189,
    "lon": -0.7974467,
    "name": "NYAKROM1",
    "id": 0,
    "trackerIMEI": 0,
    "icons": [
      "https://raw.githubusercontent.com/KKEsty2024/GhanaSites/main/cell%20tower.jpg"
    ]
  },
  {
    "lat": 5.1171367,
    "lon": -1.28335,
    "name": "KOMENDA",
    "id": 0,
    "trackerIMEI": 0,
    "icons": [
      "https://raw.githubusercontent.com/KKEsty2024/GhanaSites/main/cell%20tower.jpg"
    ]
  },
  {
    "lat": 5.4579427,
    "lon": -0.9764545,
    "name": "BESEASE",
    "id": 0,
    "trackerIMEI": 0,
    "icons": [
      "https://raw.githubusercontent.com/KKEsty2024/GhanaSites/main/cell%20tower.jpg"
    ]
  },
  {
    "lat": 5.6006733,
    "lon": -0.63309,
    "name": "KWANYAKO",
    "id": 0,
    "trackerIMEI": 0,
    "icons": [
      "https://raw.githubusercontent.com/KKEsty2024/GhanaSites/main/cell%20tower.jpg"
    ]
  },
  {
    "lat": 5.2621533,
    "lon": -0.765095,
    "name": "MUMFORD",
    "id": 0,
    "trackerIMEI": 0,
    "icons": [
      "https://raw.githubusercontent.com/KKEsty2024/GhanaSites/main/cell%20tower.jpg"
    ]
  },
  {
    "lat": 5.6317833,
    "lon": -0.8861733,
    "name": "AGONAODOBE",
    "id": 0,
    "trackerIMEI": 0,
    "icons": [
      "https://raw.githubusercontent.com/KKEsty2024/GhanaSites/main/cell%20tower.jpg"
    ]
  },
  {
    "lat": 6.119506,
    "lon": -3.0378517,
    "name": "DADIESO",
    "id": 0,
    "trackerIMEI": 0,
    "icons": [
      "https://raw.githubusercontent.com/KKEsty2024/GhanaSites/main/cell%20tower.jpg"
    ]
  },
  {
    "lat": 6.1606746,
    "lon": -0.5558971,
    "name": "KIBI2",
    "id": 0,
    "trackerIMEI": 0,
    "icons": [
      "https://raw.githubusercontent.com/KKEsty2024/GhanaSites/main/cell%20tower.jpg"
    ]
  },
  {
    "lat": 6.6597803,
    "lon": -3.2344491,
    "name": "OSEIKOJO",
    "id": 0,
    "trackerIMEI": 0,
    "icons": [
      "https://raw.githubusercontent.com/KKEsty2024/GhanaSites/main/cell%20tower.jpg"
    ]
  },
  {
    "lat": 6.193635,
    "lon": -2.3164,
    "name": "SEFIBEKWAI",
    "id": 0,
    "trackerIMEI": 0,
    "icons": [
      "https://raw.githubusercontent.com/KKEsty2024/GhanaSites/main/cell%20tower.jpg"
    ]
  },
  {
    "lat": 5.046794,
    "lon": -2.4680526,
    "name": "AIYINASEH52.2V",
    "id": 0,
    "trackerIMEI": 0,
    "icons": [
      "https://raw.githubusercontent.com/KKEsty2024/GhanaSites/main/cell%20tower.jpg"
    ]
  },
  {
    "lat": 4.8970326,
    "lon": -1.8262533,
    "name": "APOWA",
    "id": 0,
    "trackerIMEI": 0,
    "icons": [
      "https://raw.githubusercontent.com/KKEsty2024/GhanaSites/main/cell%20tower.jpg"
    ]
  },
  {
    "lat": 4.8905611,
    "lon": -1.9631011,
    "name": "AGNAKWANTA",
    "id": 0,
    "trackerIMEI": 0,
    "icons": [
      "https://raw.githubusercontent.com/KKEsty2024/GhanaSites/main/cell%20tower.jpg"
    ]
  },
  {
    "lat": 4.810553,
    "lon": -1.9424225,
    "name": "BUSUALSH52.2V",
    "id": 0,
    "trackerIMEI": 0,
    "icons": [
      "https://raw.githubusercontent.com/KKEsty2024/GhanaSites/main/cell%20tower.jpg"
    ]
  },
  {
    "lat": 6.343477,
    "lon": -2.8282244,
    "name": "JUABOSO",
    "id": 0,
    "trackerIMEI": 0,
    "icons": [
      "https://raw.githubusercontent.com/KKEsty2024/GhanaSites/main/cell%20tower.jpg"
    ]
  },
  {
    "lat": 5.437185,
    "lon": -2.1465317,
    "name": "PRESTIA2",
    "id": 0,
    "trackerIMEI": 0,
    "icons": [
      "https://raw.githubusercontent.com/KKEsty2024/GhanaSites/main/cell%20tower.jpg"
    ]
  },